{
    "house_1": {
        "street_address": "Sonesta Extended Stay Birmingham - 3 Greenhill Pkwy, Birmingham, AL",
        "city": "Birmingham",
        "state": "AL",
        "zipCode": "35242",
        "latitude": 33.423607,
        "longitude": -86.69926,
        "beds": "1/2/3",
        "rent_price/month": "$1,799+/$1,799+/$2,400+",
        "listed_date": null,
        "property_link": "https://www.zillow.com/b/sonesta-extended-stay-birmingham-birmingham-al-9DYGBL/"
    },
    "house_2": {
        "street_address": "Sonesta Extended Stay Montgomery - 1200 Hilmar Ct, Montgomery, AL",
        "city": "Montgomery",
        "state": "AL",
        "zipCode": "36117",
        "latitude": 32.36147,
        "longitude": -86.20979,
        "beds": "1/2",
        "rent_price/month": "$1,699+/$2,725+",
        "listed_date": null,
        "property_link": "https://www.zillow.com/b/sonesta-extended-stay-montgomery-montgomery-al-9Df3Dq/"
    },
    "house_3": {
        "street_address": "The Grove at Stone Park - 160 Stone Park Blvd, Pike Road, AL",
        "city": "Pike Road",
        "state": "AL",
        "zipCode": "36064",
        "latitude": 32.365322,
        "longitude": -86.055824,
        "beds": "1/2/3",
        "rent_price/month": "$1,079+/$1,299+/$1,299+",
        "listed_date": null,
        "property_link": "https://www.zillow.com/b/the-grove-at-stone-park-pike-road-al-5XqVCC/"
    },
    "house_4": {
        "street_address": "Palladian at Promenade Townhomes - 2150 Hughes Rd, Madison, AL",
        "city": "Madison",
        "state": "AL",
        "zipCode": "35757",
        "latitude": 34.759293,
        "longitude": -86.743645,
        "beds": "2/3",
        "rent_price/month": "$1,845+/$1,899+",
        "listed_date": "Updated yesterday",
        "property_link": "https://www.zillow.com/b/palladian-at-promenade-townhomes-madison-al-BgyC7g/"
    },
    "house_5": {
        "street_address": "The Cottages on Weaver Ave. - 2013 Weaver Ave, Leeds, AL",
        "city": "Leeds",
        "state": "AL",
        "zipCode": "35094",
        "latitude": 33.564182,
        "longitude": -86.51619,
        "beds": "3",
        "rent_price/month": "$1,795+",
        "listed_date": null,
        "property_link": "https://www.zillow.com/b/the-cottages-on-weaver-avenue-leeds-al-C3m6SQ/"
    },
    "house_6": {
        "street_address": "The Dempsey - 375 Lime Quarry Rd, Madison, AL",
        "city": "Madison",
        "state": "AL",
        "zipCode": "35758",
        "latitude": 34.677216,
        "longitude": -86.74012,
        "beds": "0/1/2",
        "rent_price/month": "$1,234+/$1,628+/$2,084+",
        "listed_date": null,
        "property_link": "https://www.zillow.com/b/the-dempsey-madison-al-C48rnD/"
    },
    "house_7": {
        "street_address": "Crossings of Opelika - 1650 S Fox Run Pkwy, Opelika, AL",
        "city": "Opelika",
        "state": "AL",
        "zipCode": "36801",
        "latitude": 32.637814,
        "longitude": -85.36703,
        "beds": "1/2/3",
        "rent_price/month": "$1,313+/$1,377+/$1,660+",
        "listed_date": null,
        "property_link": "https://www.zillow.com/b/crossings-of-opelika-opelika-al-5XnBPN/"
    },
    "house_8": {
        "street_address": "RiverHouse - 417 River Bend Rd, Riverside, AL",
        "city": "Riverside",
        "state": "AL",
        "zipCode": "35135",
        "latitude": 33.598682,
        "longitude": -86.19412,
        "beds": "1/2",
        "rent_price/month": "$950+/$1,050+",
        "listed_date": null,
        "property_link": "https://www.zillow.com/b/riverhouse-riverside-al-95x4WH/"
    },
    "house_9": {
        "street_address": "Addison Park - 41 Addison Park Dr, Huntsville, AL",
        "city": "Huntsville",
        "state": "AL",
        "zipCode": "35806",
        "latitude": 34.774605,
        "longitude": -86.6776,
        "beds": "2",
        "rent_price/month": "$1,279+",
        "listed_date": null,
        "property_link": "https://www.zillow.com/b/addison-park-huntsville-al-9gp7WR/"
    },
    "house_10": {
        "street_address": "Laurel at Dry Creek - 393 Johns Rd, Huntsville, AL",
        "city": "Huntsville",
        "state": "AL",
        "zipCode": "35806",
        "latitude": 34.766857,
        "longitude": -86.67865,
        "beds": "1/2/3",
        "rent_price/month": "$1,350+/$1,645+/$1,885+",
        "listed_date": null,
        "property_link": "https://www.zillow.com/b/laurel-at-dry-creek-huntsville-al-C4PQLX/"
    },
    "house_11": {
        "street_address": "Twin Oaks Townhomes - 12002 Meadow Place Ln, Madison, AL",
        "city": "Madison",
        "state": "AL",
        "zipCode": "35757",
        "latitude": 34.768707,
        "longitude": -86.76773,
        "beds": "2/3",
        "rent_price/month": "$1,850+/$1,850+",
        "listed_date": null,
        "property_link": "https://www.zillow.com/b/twin-oaks-townhomes-madison-al-CG52ZZ/"
    },
    "house_12": {
        "street_address": "Timber Leaf - 5636 Timber Leaf Ln, Bessemer, AL",
        "city": "Bessemer",
        "state": "AL",
        "zipCode": "35022",
        "latitude": 33.296463,
        "longitude": -87.01048,
        "beds": "4",
        "rent_price/month": "$2,225+",
        "listed_date": null,
        "property_link": "https://www.zillow.com/b/timber-leaf-bessemer-al-CGKWqK/"
    },
    "house_13": {
        "street_address": "The Watts - 7235 Highway 431 S, Owens Cross Roads, AL",
        "city": "Owens Cross Roads",
        "state": "AL",
        "zipCode": "35763",
        "latitude": 34.642708,
        "longitude": -86.471664,
        "beds": "1/2/3",
        "rent_price/month": "$1,289+/$1,680+/$2,293+",
        "listed_date": "3D Tour",
        "property_link": "https://www.zillow.com/b/the-watts-huntsville-al-9QbQ7d/"
    },
    "house_14": {
        "street_address": "Apartment for rent - The Watts, 7235 Highway 431 S #5303, Owens Cross Roads, AL 35763",
        "city": "Owens Cross Roads",
        "state": "AL",
        "zipCode": "35763",
        "latitude": null,
        "longitude": null,
        "beds": 2,
        "rent_price/month": "$1780.0",
        "listed_date": "1 day ago",
        "property_link": "https://www.zillow.com/b/the-watts-huntsville-al-9QbQ7d/"
    },
    "house_15": {
        "street_address": "Cottages at Oak Grove Dairy - 7 Dairy Creek Rd, Huntsville, AL",
        "city": "Huntsville",
        "state": "AL",
        "zipCode": "35803",
        "latitude": 34.60316,
        "longitude": -86.56381,
        "beds": "1/2",
        "rent_price/month": "$1,295+/$1,525+",
        "listed_date": null,
        "property_link": "https://www.zillow.com/b/cottages-at-oak-grove-dairy-huntsville-al-C8YVPn/"
    },
    "house_16": {
        "street_address": "The Foundry at Stovehouse - 3700 Governors Dr NW, Huntsville, AL",
        "city": "Huntsville",
        "state": "AL",
        "zipCode": "35805",
        "latitude": 34.721024,
        "longitude": -86.616905,
        "beds": "0/1/2/3",
        "rent_price/month": "$1,333+/$1,463+/$1,723+/$3,283+",
        "listed_date": null,
        "property_link": "https://www.zillow.com/b/the-foundry-at-stovehouse-huntsville-al-CBNbHJ/"
    },
    "house_17": {
        "street_address": "Grandview Pointe at Millbrook - 101 Crossings Dr, Millbrook, AL",
        "city": "Millbrook",
        "state": "AL",
        "zipCode": "36054",
        "latitude": 32.4976,
        "longitude": -86.39343,
        "beds": "1/2/3",
        "rent_price/month": "$917+/$1,108+/$1,246+",
        "listed_date": "Updated today",
        "property_link": "https://www.zillow.com/b/grandview-pointe-at-millbrook-millbrook-al-5XjBjc/"
    },
    "house_18": {
        "street_address": "Kipling - 7959 Mandalay, Foley, AL",
        "city": "Foley",
        "state": "AL",
        "zipCode": "36535",
        "latitude": 30.340628,
        "longitude": -87.72502,
        "beds": "3/4",
        "rent_price/month": "$2,000+/$2,200+",
        "listed_date": null,
        "property_link": "https://www.zillow.com/b/kipling-foley-al-C8Cqvb/"
    },
    "house_19": {
        "street_address": "Apartment for rent - The Watts, 7235 Highway 431 S #5301, Owens Cross Roads, AL 35763",
        "city": "Owens Cross Roads",
        "state": "AL",
        "zipCode": "35763",
        "latitude": null,
        "longitude": null,
        "beds": 2,
        "rent_price/month": "$1780.0",
        "listed_date": "1 day ago",
        "property_link": "https://www.zillow.com/b/the-watts-huntsville-al-9QbQ7d/"
    },
    "house_20": {
        "street_address": "324 Cardinal Dr. SW - 324 Cardinal Dr SW, Decatur, AL",
        "city": "Decatur",
        "state": "AL",
        "zipCode": "35601",
        "latitude": 34.57416,
        "longitude": -86.98939,
        "beds": "1/2",
        "rent_price/month": "$799+/$899+",
        "listed_date": null,
        "property_link": "https://www.zillow.com/b/324-cardinal-dr.-sw-decatur-al-5XqNHh/"
    },
    "house_21": {
        "street_address": "1010 Elliston - 1010 Elliston Pl NW, Madison, AL",
        "city": "Madison",
        "state": "AL",
        "zipCode": "35757",
        "latitude": 34.764233,
        "longitude": -86.73689,
        "beds": "2",
        "rent_price/month": "$1,520+",
        "listed_date": "3D Tour",
        "property_link": "https://www.zillow.com/b/1010-elliston-madison-al-C8YVK3/"
    },
    "house_22": {
        "street_address": "Apartment for rent - 1010 Elliston, 1010 Elliston Pl NW #523, Madison, AL 35757",
        "city": "Madison",
        "state": "AL",
        "zipCode": "35757",
        "latitude": null,
        "longitude": null,
        "beds": 2,
        "rent_price/month": "$1545.0",
        "listed_date": "4 hours ago",
        "property_link": "https://www.zillow.com/b/1010-elliston-madison-al-C8YVK3/"
    },
    "house_23": {
        "street_address": "Aventura Oak Mountain - 1 Stonecrest Dr, Birmingham, AL",
        "city": "Birmingham",
        "state": "AL",
        "zipCode": "35242",
        "latitude": 33.407234,
        "longitude": -86.660164,
        "beds": "1/2/3",
        "rent_price/month": "$1,175+/$1,288+/$1,500+",
        "listed_date": null,
        "property_link": "https://www.zillow.com/b/aventura-oak-mountain-birmingham-al-5Xj7Nf/"
    },
    "house_24": {
        "street_address": "The Reserve at North River Apartments - 1761 Commons North Loop, Tuscaloosa, AL",
        "city": "Tuscaloosa",
        "state": "AL",
        "zipCode": "35406",
        "latitude": 33.25963,
        "longitude": -87.51207,
        "beds": "1/2/3",
        "rent_price/month": "$1,346+/$1,554+/$1,686+",
        "listed_date": null,
        "property_link": "https://www.zillow.com/b/the-reserve-at-north-river-apartments-tuscaloosa-al-5XjSq3/"
    },
    "house_25": {
        "street_address": "The Palmer - 1415 3rd Ave S, Birmingham, AL",
        "city": "Birmingham",
        "state": "AL",
        "zipCode": "35233",
        "latitude": 33.506115,
        "longitude": -86.810165,
        "beds": "0/1/2",
        "rent_price/month": "$1,732+/$1,833+/$2,358+",
        "listed_date": "3D Tour",
        "property_link": "https://www.zillow.com/b/the-palmer-birmingham-al-ByryqB/"
    },
    "house_26": {
        "street_address": "The Village at Hickory Street - 904 Shagbark Rd, Foley, AL",
        "city": "Foley",
        "state": "AL",
        "zipCode": "36535",
        "latitude": 30.383316,
        "longitude": -87.69986,
        "beds": "3/5",
        "rent_price/month": "$1,850+/$2,600+",
        "listed_date": null,
        "property_link": "https://www.zillow.com/b/The-Village-at-Hickory-Street-Foley-AL/30.383316,-87.69986_ll/"
    },
    "house_27": {
        "street_address": "Madison Pines Apartment Homes - 340 Gillespie Rd, Madison, AL",
        "city": "Madison",
        "state": "AL",
        "zipCode": "35758",
        "latitude": 34.72732,
        "longitude": -86.75237,
        "beds": "3",
        "rent_price/month": "$1,375+",
        "listed_date": "3D Tour",
        "property_link": "https://www.zillow.com/b/madison-pines-apartment-homes-madison-al-5XkdBG/"
    },
    "house_28": {
        "street_address": "Riverchase Landing - 200 River Haven Ln, Birmingham, AL",
        "city": "Birmingham",
        "state": "AL",
        "zipCode": "35244",
        "latitude": 33.37526,
        "longitude": -86.79346,
        "beds": "1/2/3",
        "rent_price/month": "$1,348+/$1,208+/$1,524+",
        "listed_date": null,
        "property_link": "https://www.zillow.com/b/riverchase-landing-hoover-al-9h6gTH/"
    },
    "house_29": {
        "street_address": "Revere at River Landing - 30 E Revere Blvd SW, Madison, AL",
        "city": "Madison",
        "state": "AL",
        "zipCode": "35756",
        "latitude": 34.617798,
        "longitude": -86.751724,
        "beds": "1/2/3",
        "rent_price/month": "$1,190+/$1,390+/$1,660+",
        "listed_date": null,
        "property_link": "https://www.zillow.com/b/revere-at-river-landing-madison-al-BtYp96/"
    },
    "house_30": {
        "street_address": "Bluffs at Riverview - 2801 Riverview Rd, Birmingham, AL",
        "city": "Birmingham",
        "state": "AL",
        "zipCode": "35242",
        "latitude": 33.428314,
        "longitude": -86.71653,
        "beds": "1/2/3",
        "rent_price/month": "$1,475+/$1,595+/$1,745+",
        "listed_date": "3D Tour",
        "property_link": "https://www.zillow.com/b/bluffs-at-riverview-birmingham-al-5XjR6n/"
    },
    "house_31": {
        "street_address": "20 Midtown - 2014 3rd Ave S, Birmingham, AL",
        "city": "Birmingham",
        "state": "AL",
        "zipCode": "35233",
        "latitude": 33.510387,
        "longitude": -86.8021,
        "beds": "0/1/2",
        "rent_price/month": "$1,135+/$1,550+/$2,000+",
        "listed_date": "Updated today",
        "property_link": "https://www.zillow.com/b/20-midtown-birmingham-al-CHZPJQ/"
    },
    "house_32": {
        "street_address": "Apartment for rent - Essex Square, 3550 Watermelon Rd, Northport, AL 35473",
        "city": "Northport",
        "state": "AL",
        "zipCode": "35473",
        "latitude": 33.238644,
        "longitude": -87.55403,
        "beds": 1,
        "rent_price/month": "$875.0",
        "listed_date": "115 days ago",
        "property_link": "https://www.zillow.com/b/essex-square-northport-al-5XjKVt/"
    },
    "house_33": {
        "street_address": "Central Park - 129 Royal Dr, Madison, AL",
        "city": "Madison",
        "state": "AL",
        "zipCode": "35758",
        "latitude": 34.68403,
        "longitude": -86.75915,
        "beds": "3",
        "rent_price/month": "$1,885+",
        "listed_date": null,
        "property_link": "https://www.zillow.com/b/central-park-madison-al-CC5Pkm/"
    },
    "house_34": {
        "street_address": "Peppertree - 8201 Vaughn Rd, Montgomery, AL",
        "city": "Montgomery",
        "state": "AL",
        "zipCode": "36116",
        "latitude": 32.340137,
        "longitude": -86.16993,
        "beds": "1/2",
        "rent_price/month": "$1,085+/$1,140+",
        "listed_date": null,
        "property_link": "https://www.zillow.com/b/peppertree-montgomery-al-5Xjq3r/"
    },
    "house_35": {
        "street_address": "Old Shell Lofts Phase 2 - 1750 Old Shell Rd, Mobile, AL",
        "city": "Mobile",
        "state": "AL",
        "zipCode": "36604",
        "latitude": 30.689953,
        "longitude": -88.08001,
        "beds": "1/2",
        "rent_price/month": "$1,100+/$1,615+",
        "listed_date": null,
        "property_link": "https://www.zillow.com/b/old-shell-lofts-phase-2-mobile-al-Bg58K3/"
    },
    "house_36": {
        "street_address": "Huntley Apartments - 100 Huntley Apartment Dr, Pelham, AL",
        "city": "Pelham",
        "state": "AL",
        "zipCode": "35124",
        "latitude": 33.27197,
        "longitude": -86.79521,
        "beds": "1/2/3",
        "rent_price/month": "$1,246+/$1,568+/$1,464+",
        "listed_date": null,
        "property_link": "https://www.zillow.com/b/huntley-apartments-pelham-al-9DWPRZ/"
    },
    "house_37": {
        "street_address": "The Glenn - 2568 E Glenn Ave, Auburn, AL",
        "city": "Auburn",
        "state": "AL",
        "zipCode": "36830",
        "latitude": 32.612633,
        "longitude": -85.4234,
        "beds": "3",
        "rent_price/month": "$2,535+",
        "listed_date": null,
        "property_link": "https://www.zillow.com/b/the-glenn-auburn-al-9Qd3MP/"
    },
    "house_38": {
        "street_address": "Colonial Grand at Edgewater - 1030 Grandeview Blvd, Huntsville, AL",
        "city": "Huntsville",
        "state": "AL",
        "zipCode": "35824",
        "latitude": 34.773964,
        "longitude": -86.70078,
        "beds": "1/2/3",
        "rent_price/month": "$1,028+/$1,133+/$1,358+",
        "listed_date": null,
        "property_link": "https://www.zillow.com/b/colonial-grand-at-edgewater-huntsville-al-5XjFFd/"
    },
    "house_39": {
        "street_address": "Virtuoso Living - 100 Rockcrest Dr NW, Huntsville, AL",
        "city": "Huntsville",
        "state": "AL",
        "zipCode": "35806",
        "latitude": 34.756126,
        "longitude": -86.68302,
        "beds": "1/2",
        "rent_price/month": "$1,275+/$1,500+",
        "listed_date": null,
        "property_link": "https://www.zillow.com/b/virtuoso-living-huntsville-al-BrxRjg/"
    },
    "house_40": {
        "street_address": "Verandas at Taylor Oaks - 7701 Taylor Oaks Cir, Montgomery, AL",
        "city": "Montgomery",
        "state": "AL",
        "zipCode": "36116",
        "latitude": 32.324677,
        "longitude": -86.18206,
        "beds": "1/2/3",
        "rent_price/month": "$1,139+/$1,196+/$1,423+",
        "listed_date": null,
        "property_link": "https://www.zillow.com/b/verandas-at-taylor-oaks-montgomery-al-5Xjq4R/"
    },
    "house_41": {
        "street_address": "Inkwell on Grandview - 3560 Grandview Pkwy, Birmingham, AL",
        "city": "Birmingham",
        "state": "AL",
        "zipCode": "35243",
        "latitude": 33.440067,
        "longitude": -86.71709,
        "beds": "0/1/2/3",
        "rent_price/month": "$1,559+/$1,559+/$2,469+/$3,145+",
        "listed_date": null,
        "property_link": "https://www.zillow.com/b/inkwell-on-grandview-birmingham-al-9DYMGL/"
    },
    "house_42": {
        "street_address": "Avenue Madison - 85 Shorter St, Madison, AL",
        "city": "Madison",
        "state": "AL",
        "zipCode": "35758",
        "latitude": 34.690063,
        "longitude": -86.750916,
        "beds": "1/2",
        "rent_price/month": "$1,303+/$1,540+",
        "listed_date": null,
        "property_link": "https://www.zillow.com/b/avenue-madison-madison-al-C3cpFY/"
    },
    "house_43": {
        "street_address": "The Reserve of Foley - 21450 County Road 12 S, Foley, AL",
        "city": "Foley",
        "state": "AL",
        "zipCode": "36535",
        "latitude": 30.353855,
        "longitude": -87.65998,
        "beds": "0/1/2/3",
        "rent_price/month": "$1,200+/$1,325+/$1,500+/$1,800+",
        "listed_date": null,
        "property_link": "https://www.zillow.com/b/the-reserve-of-foley-foley-al-BLmWHp/"
    },
    "house_44": {
        "street_address": "The Hamptons at Pine Bend - 1030 Montlimar Dr, Mobile, AL",
        "city": "Mobile",
        "state": "AL",
        "zipCode": "36609",
        "latitude": 30.670013,
        "longitude": -88.13561,
        "beds": "1/2/3",
        "rent_price/month": "$847+/$956+/$1,483+",
        "listed_date": null,
        "property_link": "https://www.zillow.com/b/the-hamptons-at-pine-bend-mobile-al-5XjFFw/"
    },
    "house_45": {
        "street_address": "4700 Colonnade - 4700 Colonnade Pl, Birmingham, AL",
        "city": "Birmingham",
        "state": "AL",
        "zipCode": "35243",
        "latitude": 33.43368,
        "longitude": -86.73714,
        "beds": "1/2",
        "rent_price/month": "$1,611+/$1,809+",
        "listed_date": null,
        "property_link": "https://www.zillow.com/b/4700-colonnade-birmingham-al-65fcSQ/"
    },
    "house_46": {
        "street_address": "Lakeshore Ridge - 1700 Lakeshore Rdg, Birmingham, AL",
        "city": "Birmingham",
        "state": "AL",
        "zipCode": "35211",
        "latitude": 33.435455,
        "longitude": -86.858284,
        "beds": "1/2/3",
        "rent_price/month": "$1,311+/$1,237+/$2,029+",
        "listed_date": null,
        "property_link": "https://www.zillow.com/b/lakeshore-ridge-birmingham-al-5XjVYQ/"
    },
    "house_47": {
        "street_address": "Anthos at Belmont - 3580 McGehee Place Dr S, Montgomery, AL",
        "city": "Montgomery",
        "state": "AL",
        "zipCode": "36111",
        "latitude": 32.332813,
        "longitude": -86.242516,
        "beds": "1/2/3",
        "rent_price/month": "$675+/$760+/$975+",
        "listed_date": null,
        "property_link": "https://www.zillow.com/b/anthos-at-belmont-montgomery-al-5Xt4GL/"
    },
    "house_48": {
        "street_address": "Sturbridge Commons - 8700 Seaton Blvd, Montgomery, AL",
        "city": "Montgomery",
        "state": "AL",
        "zipCode": "36116",
        "latitude": 32.336754,
        "longitude": -86.17273,
        "beds": "1/2/3",
        "rent_price/month": "$1,048+/$1,087+/$1,378+",
        "listed_date": null,
        "property_link": "https://www.zillow.com/b/sturbridge-commons-montgomery-al-5Xjq4L/"
    },
    "house_49": {
        "street_address": "Apartment for rent - Henry House at Clift Farm, 1435 Balch Rd #1303, Madison, AL 35757",
        "city": "Madison",
        "state": "AL",
        "zipCode": "35757",
        "latitude": null,
        "longitude": null,
        "beds": 2,
        "rent_price/month": "$1530.0",
        "listed_date": "5 days ago",
        "property_link": "https://www.zillow.com/b/henry-house-at-clift-farm-madison-al-BWkbdz/"
    },
    "house_50": {
        "street_address": "Mirage on University - 112 S University Blvd, Mobile, AL",
        "city": "Mobile",
        "state": "AL",
        "zipCode": "36608",
        "latitude": 30.685604,
        "longitude": -88.17516,
        "beds": "2/3/4",
        "rent_price/month": "$1,350+/$1,595+/$1,550+",
        "listed_date": null,
        "property_link": "https://www.zillow.com/b/mirage-on-university-mobile-al-5XqnVq/"
    },
    "house_51": {
        "street_address": "Apartment for rent - Knollwood Apartments, 1651 Knollwood Dr #605, Mobile, AL 36609",
        "city": "Mobile",
        "state": "AL",
        "zipCode": "36609",
        "latitude": null,
        "longitude": null,
        "beds": 1,
        "rent_price/month": "$826.0",
        "listed_date": "1 hour ago",
        "property_link": "https://www.zillow.com/b/knollwood-apartments-mobile-al-5Xk2m9/"
    },
    "house_52": {
        "street_address": "Knollwood Apartments - 1651 Knollwood Dr, Mobile, AL",
        "city": "Mobile",
        "state": "AL",
        "zipCode": "36609",
        "latitude": 30.656034,
        "longitude": -88.17839,
        "beds": "1/2",
        "rent_price/month": "$783+/$949+",
        "listed_date": null,
        "property_link": "https://www.zillow.com/b/knollwood-apartments-mobile-al-5Xk2m9/"
    },
    "house_53": {
        "street_address": "Trails at Alabaster - 1740 Woodbrook Trl, Alabaster, AL",
        "city": "Alabaster",
        "state": "AL",
        "zipCode": "35007",
        "latitude": 33.221584,
        "longitude": -86.8248,
        "beds": "1/2",
        "rent_price/month": "$993+/$1,167+",
        "listed_date": null,
        "property_link": "https://www.zillow.com/b/trails-at-alabaster-alabaster-al-5XjSwM/"
    },
    "house_54": {
        "street_address": "Elevate 5050 - 5050 Bell Rd, Montgomery, AL",
        "city": "Montgomery",
        "state": "AL",
        "zipCode": "36116",
        "latitude": 32.31981,
        "longitude": -86.21254,
        "beds": "1/2/3",
        "rent_price/month": "$1,043+/$1,155+/$1,343+",
        "listed_date": null,
        "property_link": "https://www.zillow.com/b/elevate-5050-montgomery-al-5Xjq4n/"
    },
    "house_55": {
        "street_address": "Park Place - 600 24th St N, Birmingham, AL",
        "city": "Birmingham",
        "state": "AL",
        "zipCode": "35203",
        "latitude": 33.5219,
        "longitude": -86.80366,
        "beds": "1/2/3",
        "rent_price/month": "$996+/$1,116+/$1,587+",
        "listed_date": null,
        "property_link": "https://www.zillow.com/b/park-place-birmingham-al-5XjL34/"
    },
    "house_56": {
        "street_address": "Seleno at Bridge Street - 6854 Governors West NW, Huntsville, AL",
        "city": "Huntsville",
        "state": "AL",
        "zipCode": "35806",
        "latitude": 34.718967,
        "longitude": -86.67583,
        "beds": "1/2/3",
        "rent_price/month": "$1,280+/$1,587+/$1,877+",
        "listed_date": null,
        "property_link": "https://www.zillow.com/b/seleno-at-bridge-street-huntsville-al-BMRs36/"
    },
    "house_57": {
        "street_address": "Henry House at Clift Farm - 1435 Balch Rd, Madison, AL",
        "city": "Madison",
        "state": "AL",
        "zipCode": "35757",
        "latitude": 34.759094,
        "longitude": -86.767395,
        "beds": "1/2/3",
        "rent_price/month": "$1,137+/$1,347+/$1,605+",
        "listed_date": "3D Tour",
        "property_link": "https://www.zillow.com/b/henry-house-at-clift-farm-madison-al-BWkbdz/"
    },
    "house_58": {
        "street_address": "Palmer House - 240 Stadium Way, Madison, AL",
        "city": "Madison",
        "state": "AL",
        "zipCode": "35758",
        "latitude": 34.686157,
        "longitude": -86.72058,
        "beds": "0/1/2",
        "rent_price/month": "$1,170+/$1,235+/$1,600+",
        "listed_date": null,
        "property_link": "https://www.zillow.com/b/palmer-house-madison-al-Bv96VZ/"
    },
    "house_59": {
        "street_address": "2500 Spring Ave. SW - 2500 Spring Ave SW, Decatur, AL",
        "city": "Decatur",
        "state": "AL",
        "zipCode": "35601",
        "latitude": 34.565365,
        "longitude": -86.998924,
        "beds": "1/2/3",
        "rent_price/month": "$799+/$949+/$1,149+",
        "listed_date": null,
        "property_link": "https://www.zillow.com/b/2500-spring-ave.-sw-decatur-al-5XrdCt/"
    },
    "house_60": {
        "street_address": "61Ninety West - 6190 Girby Rd, Mobile, AL",
        "city": "Mobile",
        "state": "AL",
        "zipCode": "36693",
        "latitude": 30.61876,
        "longitude": -88.18426,
        "beds": "1/2/3",
        "rent_price/month": "$1,300+/$1,250+/$1,525+",
        "listed_date": "Updated yesterday",
        "property_link": "https://www.zillow.com/b/61ninety-west-mobile-al-5Xjtcv/"
    },
    "house_61": {
        "street_address": "150 Summit - 150 Summit Pl, Birmingham, AL",
        "city": "Birmingham",
        "state": "AL",
        "zipCode": "35243",
        "latitude": 33.45054,
        "longitude": -86.73344,
        "beds": "1/2/3",
        "rent_price/month": "$1,040+/$1,417+/$1,547+",
        "listed_date": null,
        "property_link": "https://www.zillow.com/b/150-summit-birmingham-al-5XjTgG/"
    },
    "house_62": {
        "street_address": "Madison Landing at Research Park and the Cottages - 2002 Flagstone Dr, Madison, AL",
        "city": "Madison",
        "state": "AL",
        "zipCode": "35758",
        "latitude": 34.692963,
        "longitude": -86.72378,
        "beds": "1/2/3",
        "rent_price/month": "$1,104+/$1,149+/$1,279+",
        "listed_date": null,
        "property_link": "https://www.zillow.com/b/madison-landing-at-research-park-and-the-cottages-madison-al-5Xn48F/"
    },
    "house_63": {
        "street_address": "Apartment for rent - Madison Landing at Research Park and the Cottages, 2002 Flagstone Dr #1907, Madison, AL 35758",
        "city": "Madison",
        "state": "AL",
        "zipCode": "35758",
        "latitude": 34.69302,
        "longitude": -86.721146,
        "beds": 2,
        "rent_price/month": "$1344.0",
        "listed_date": "2 hours ago",
        "property_link": "https://www.zillow.com/b/madison-landing-at-research-park-and-the-cottages-madison-al-5Xn48F/"
    },
    "house_64": {
        "street_address": "The Trails at Cahaba River - 801 Cahaba Forest Cv, Birmingham, AL",
        "city": "Birmingham",
        "state": "AL",
        "zipCode": "35242",
        "latitude": 33.431747,
        "longitude": -86.70558,
        "beds": "1/2/3",
        "rent_price/month": "$1,014+/$1,135+/$1,317+",
        "listed_date": "3D Tour",
        "property_link": "https://www.zillow.com/b/the-trails-at-cahaba-river-birmingham-al-5XjKXH/"
    },
    "house_65": {
        "street_address": "Carrington Park - 2000 Central Pkwy, Montgomery, AL",
        "city": "Montgomery",
        "state": "AL",
        "zipCode": "36106",
        "latitude": 32.35362,
        "longitude": -86.224144,
        "beds": "1/2/3",
        "rent_price/month": "$1,043+/$1,370+/$1,393+",
        "listed_date": null,
        "property_link": "https://www.zillow.com/b/carrington-park-montgomery-al-5Xjq3k/"
    },
    "house_66": {
        "street_address": "Cortland Vesta - 2173 Highland Ave S, Birmingham, AL",
        "city": "Birmingham",
        "state": "AL",
        "zipCode": "35205",
        "latitude": 33.49981,
        "longitude": -86.79105,
        "beds": "1/2",
        "rent_price/month": "$1,690+/$2,261+",
        "listed_date": "Updated yesterday",
        "property_link": "https://www.zillow.com/b/cortland-vesta-birmingham-al-9QZHTV/"
    },
    "house_67": {
        "street_address": "Main Street Apartments - 1450 Paramount Dr, Huntsville, AL",
        "city": "Huntsville",
        "state": "AL",
        "zipCode": "35806",
        "latitude": 34.752605,
        "longitude": -86.69905,
        "beds": "1/2/3",
        "rent_price/month": "$1,075+/$1,192+/$1,670+",
        "listed_date": null,
        "property_link": "https://www.zillow.com/b/main-street-apartments-huntsville-al-5Xq44x/"
    },
    "house_68": {
        "street_address": "The Paddock Club at Providence - 685 Providence Main St NW, Huntsville, AL",
        "city": "Huntsville",
        "state": "AL",
        "zipCode": "35806",
        "latitude": 34.75635,
        "longitude": -86.691,
        "beds": "2/3",
        "rent_price/month": "$1,233+/$1,518+",
        "listed_date": "3D Tour",
        "property_link": "https://www.zillow.com/b/the-paddock-club-at-providence-huntsville-al-5XkfwH/"
    },
    "house_69": {
        "street_address": "The Heights - 605 Maxwell Blvd, Montgomery, AL",
        "city": "Montgomery",
        "state": "AL",
        "zipCode": "36104",
        "latitude": 32.37723,
        "longitude": -86.31872,
        "beds": "1/2",
        "rent_price/month": "$1,408+/$1,689+",
        "listed_date": null,
        "property_link": "https://www.zillow.com/b/the-heights-montgomery-al-65dMmT/"
    },
    "house_70": {
        "street_address": "Villas at Kelly Springs - 710 Nick Fitcheard Rd NW, Huntsville, AL",
        "city": "Huntsville",
        "state": "AL",
        "zipCode": "35806",
        "latitude": 34.791325,
        "longitude": -86.67014,
        "beds": "2",
        "rent_price/month": "$1,500+",
        "listed_date": null,
        "property_link": "https://www.zillow.com/b/villas-at-kelly-springs-huntsville-al-BrNHCx/"
    },
    "house_71": {
        "street_address": "Azalea Hill - 5801 E Shirley Ln, Montgomery, AL",
        "city": "Montgomery",
        "state": "AL",
        "zipCode": "36117",
        "latitude": 32.36864,
        "longitude": -86.203926,
        "beds": "1/2",
        "rent_price/month": "$739+/$954+",
        "listed_date": null,
        "property_link": "https://www.zillow.com/b/azalea-hill-montgomery-al-5Xjq4q/"
    },
    "house_72": {
        "street_address": "Colonial Grand at Madison - 2300 Colonial Lake Dr, Madison, AL",
        "city": "Madison",
        "state": "AL",
        "zipCode": "35758",
        "latitude": 34.688156,
        "longitude": -86.73269,
        "beds": "1/2/3",
        "rent_price/month": "$1,210+/$1,208+/$1,543+",
        "listed_date": "3D Tour",
        "property_link": "https://www.zillow.com/b/colonial-grand-at-madison-madison-al-5XkdxW/"
    },
    "house_73": {
        "street_address": "Ariza Oakwood - 5771 Oakwood Rd NW, Huntsville, AL",
        "city": "Huntsville",
        "state": "AL",
        "zipCode": "35806",
        "latitude": 34.756554,
        "longitude": -86.67644,
        "beds": "1/2",
        "rent_price/month": "$1,225+/$1,475+",
        "listed_date": null,
        "property_link": "https://www.zillow.com/b/ariza-oakwood-huntsville-al-C6Cywg/"
    },
    "house_74": {
        "street_address": "Amesbury - 4084 Amesbury Dr, Montgomery, AL",
        "city": "Montgomery",
        "state": "AL",
        "zipCode": "36116",
        "latitude": 32.319324,
        "longitude": -86.237495,
        "beds": "1/2",
        "rent_price/month": "$450+/$515+",
        "listed_date": null,
        "property_link": "https://www.zillow.com/b/amesbury-montgomery-al-5Xjq49/"
    },
    "house_75": {
        "street_address": "Gravity at 255 - 1501 Old Monrovia Rd NW, Huntsville, AL",
        "city": "Huntsville",
        "state": "AL",
        "zipCode": "35806",
        "latitude": 34.75322,
        "longitude": -86.681885,
        "beds": "1/2",
        "rent_price/month": "$1,159+/$1,551+",
        "listed_date": null,
        "property_link": "https://www.zillow.com/b/gravity-at-255-huntsville-al-5Xkdmh/"
    },
    "house_76": {
        "street_address": "Homewood Heights Apartment Homes - 403 Edgecrest Dr, Birmingham, AL",
        "city": "Birmingham",
        "state": "AL",
        "zipCode": "35209",
        "latitude": 33.463676,
        "longitude": -86.83241,
        "beds": "1/2",
        "rent_price/month": "$1,165+/$1,395+",
        "listed_date": "3D Tour",
        "property_link": "https://www.zillow.com/b/homewood-heights-apartment-homes-homewood-al-5XxmFs/"
    },
    "house_77": {
        "street_address": "Fox Crossings - 3635 Gas Light Curv, Montgomery, AL",
        "city": "Montgomery",
        "state": "AL",
        "zipCode": "36116",
        "latitude": 32.327732,
        "longitude": -86.22826,
        "beds": "1/2",
        "rent_price/month": "$480+/$580+",
        "listed_date": null,
        "property_link": "https://www.zillow.com/b/fox-crossings-montgomery-al-5Xjq4v/"
    },
    "house_78": {
        "street_address": "Retreat at Schillinger - 1313 Schillinger Rd S, Mobile, AL",
        "city": "Mobile",
        "state": "AL",
        "zipCode": "36695",
        "latitude": 30.663494,
        "longitude": -88.224304,
        "beds": "1/2/3",
        "rent_price/month": "$1,169+/$1,237+/$1,544+",
        "listed_date": null,
        "property_link": "https://www.zillow.com/b/retreat-at-schillinger-mobile-al-5Xk2qm/"
    },
    "house_79": {
        "street_address": "Kenley Apartments - 10 Kenley Way, Birmingham, AL",
        "city": "Birmingham",
        "state": "AL",
        "zipCode": "35242",
        "latitude": 33.43248,
        "longitude": -86.69788,
        "beds": "1/2/3",
        "rent_price/month": "$1,083+/$1,726+/$1,794+",
        "listed_date": "Updated yesterday",
        "property_link": "https://www.zillow.com/b/kenley-apartments-birmingham-al-5Xj7Tm/"
    },
    "house_80": {
        "street_address": "The Cottages at Old Monrovia - 335 Culbertson Dr NW, Huntsville, AL",
        "city": "Huntsville",
        "state": "AL",
        "zipCode": "35806",
        "latitude": 34.753506,
        "longitude": -86.677444,
        "beds": "1/2/3",
        "rent_price/month": "$1,123+/$1,604+/$2,455+",
        "listed_date": null,
        "property_link": "https://www.zillow.com/b/the-cottages-at-old-monrovia-huntsville-al-BvTcN7/"
    },
    "house_81": {
        "street_address": "Stonebridge - 3070 Kelly Cir, Montgomery, AL",
        "city": "Montgomery",
        "state": "AL",
        "zipCode": "36116",
        "latitude": 32.32045,
        "longitude": -86.24428,
        "beds": "1/2",
        "rent_price/month": "$500+/$610+",
        "listed_date": null,
        "property_link": "https://www.zillow.com/b/stonebridge-montgomery-al-5XksCj/"
    },
    "house_82": {
        "street_address": "Addison Park - 101 S Burbank Dr, Montgomery, AL",
        "city": "Montgomery",
        "state": "AL",
        "zipCode": "36117",
        "latitude": 32.37878,
        "longitude": -86.19694,
        "beds": "1/2/3",
        "rent_price/month": "$870+/$945+/$1,118+",
        "listed_date": "Updated yesterday",
        "property_link": "https://www.zillow.com/b/addison-park-montgomery-al-5XjDMD/"
    },
    "house_83": {
        "street_address": "Cottages at Lake Tamaha - 745 Tamaha Trce NE, Tuscaloosa, AL",
        "city": "Tuscaloosa",
        "state": "AL",
        "zipCode": "35404",
        "latitude": 33.224277,
        "longitude": -87.50105,
        "beds": "4/5",
        "rent_price/month": "$1,500+/$1,596+",
        "listed_date": "3D Tour",
        "property_link": "https://www.zillow.com/b/cottages-at-lake-tamaha-tuscaloosa-al-5XjL4t/"
    },
    "house_84": {
        "street_address": "Foxcroft - 5701 Calmar Dr, Montgomery, AL",
        "city": "Montgomery",
        "state": "AL",
        "zipCode": "36116",
        "latitude": 32.33009,
        "longitude": -86.22757,
        "beds": "2/3",
        "rent_price/month": "$660+/$790+",
        "listed_date": null,
        "property_link": "https://www.zillow.com/b/foxcroft-montgomery-al-5Xjq48/"
    },
    "house_85": {
        "street_address": "Broadstreet at EastChase - 8462 Eastchase Pkwy, Montgomery, AL",
        "city": "Montgomery",
        "state": "AL",
        "zipCode": "36117",
        "latitude": 32.362743,
        "longitude": -86.146736,
        "beds": "1/2/3",
        "rent_price/month": "$1,196+/$1,259+/$1,640+",
        "listed_date": null,
        "property_link": "https://www.zillow.com/b/broadstreet-at-eastchase-montgomery-al-5XqWZn/"
    },
    "house_86": {
        "street_address": "Apartment for rent - April Leigh, 11388 Tingle Tangle Rd #17-17898, Vance, AL 35490",
        "city": "Vance",
        "state": "AL",
        "zipCode": "35490",
        "latitude": 33.150337,
        "longitude": -87.25186,
        "beds": 4,
        "rent_price/month": "$2100.0",
        "listed_date": "46 days ago",
        "property_link": "https://www.zillow.com/b/april-leigh-vance-al-9DYzyZ/"
    },
    "house_87": {
        "street_address": "Carondolet Apartments - 4612 Spring Hill Ave, Mobile, AL",
        "city": "Mobile",
        "state": "AL",
        "zipCode": "36608",
        "latitude": 30.707624,
        "longitude": -88.14584,
        "beds": "1/2",
        "rent_price/month": "$835+/$960+",
        "listed_date": null,
        "property_link": "https://www.zillow.com/b/carondolet-apartments-mobile-al-5Xn4QD/"
    },
    "house_88": {
        "street_address": "Midtown 250 - 250 S Sage Ave, Mobile, AL",
        "city": "Mobile",
        "state": "AL",
        "zipCode": "36606",
        "latitude": 30.679434,
        "longitude": -88.11567,
        "beds": "1",
        "rent_price/month": "$715+",
        "listed_date": null,
        "property_link": "https://www.zillow.com/b/midtown-250-mobile-al-5XqLGc/"
    },
    "house_89": {
        "street_address": "Ashbury Woods - 32 Ashbury Woods Dr, Huntsville, AL",
        "city": "Huntsville",
        "state": "AL",
        "zipCode": "35824",
        "latitude": 34.656876,
        "longitude": -86.7187,
        "beds": "1/2/3",
        "rent_price/month": "$1,099+/$1,285+/$1,409+",
        "listed_date": "Updated yesterday",
        "property_link": "https://www.zillow.com/b/ashbury-woods-huntsville-al-5Xrpv7/"
    },
    "house_90": {
        "street_address": "Maison De Ville - 3920 Berwyn Dr S, Mobile, AL",
        "city": "Mobile",
        "state": "AL",
        "zipCode": "36608",
        "latitude": 30.677586,
        "longitude": -88.142105,
        "beds": "1/2",
        "rent_price/month": "$837+/$982+",
        "listed_date": null,
        "property_link": "https://www.zillow.com/b/maison-de-ville-mobile-al-BSQ9KF/"
    },
    "house_91": {
        "street_address": "Fox Run - 5633 Calmar Dr, Montgomery, AL",
        "city": "Montgomery",
        "state": "AL",
        "zipCode": "36116",
        "latitude": 32.329945,
        "longitude": -86.23,
        "beds": "1/2/3",
        "rent_price/month": "$570+/$650+/$770+",
        "listed_date": null,
        "property_link": "https://www.zillow.com/b/fox-run-montgomery-al-5Xjq47/"
    },
    "house_92": {
        "street_address": "Cloverdale Estates - 3453 Audubon Rd, Montgomery, AL",
        "city": "Montgomery",
        "state": "AL",
        "zipCode": "36111",
        "latitude": 32.342052,
        "longitude": -86.290375,
        "beds": "1/2/3",
        "rent_price/month": "$725+/$795+/$895+",
        "listed_date": null,
        "property_link": "https://www.zillow.com/b/cloverdale-estates-montgomery-al-9hQbmK/"
    },
    "house_93": {
        "street_address": "The Falls and Woods Of Hoover Apartments - 3801 Galleria Woods Dr, Birmingham, AL",
        "city": "Birmingham",
        "state": "AL",
        "zipCode": "35244",
        "latitude": 33.366875,
        "longitude": -86.81611,
        "beds": "1/2/3",
        "rent_price/month": "$918+/$1,135+/$1,248+",
        "listed_date": null,
        "property_link": "https://www.zillow.com/b/the-falls-and-woods-of-hoover-apartments-hoover-al-5bcktr/"
    },
    "house_94": {
        "street_address": "Apartment for rent - The Falls and Woods Of Hoover Apartments, 3801 Galleria Woods Dr #6038, Birmingham, AL 35244",
        "city": "Birmingham",
        "state": "AL",
        "zipCode": "35244",
        "latitude": null,
        "longitude": null,
        "beds": 2,
        "rent_price/month": "$1146.0",
        "listed_date": "4 hours ago",
        "property_link": "https://www.zillow.com/b/the-falls-and-woods-of-hoover-apartments-hoover-al-5bcktr/"
    },
    "house_95": {
        "street_address": "Halcyon Park Apartments - 7880 Taylor Park Rd, Montgomery, AL",
        "city": "Montgomery",
        "state": "AL",
        "zipCode": "36117",
        "latitude": 32.340336,
        "longitude": -86.18061,
        "beds": "1",
        "rent_price/month": "$1,020+",
        "listed_date": "Updated yesterday",
        "property_link": "https://www.zillow.com/b/halcyon-park-apartments-montgomery-al-5Xjq3q/"
    },
    "house_96": {
        "street_address": "Trilliam - 425 Trilliam Ln, Clanton, AL",
        "city": "Clanton",
        "state": "AL",
        "zipCode": "35045",
        "latitude": 32.81628,
        "longitude": -86.60268,
        "beds": "2/3",
        "rent_price/month": "$920+/$1,105+",
        "listed_date": null,
        "property_link": "https://www.zillow.com/b/trilliam-clanton-al-5XjW3H/"
    },
    "house_97": {
        "street_address": "Charleston Apartment Homes - 2889 Sollie Rd, Mobile, AL",
        "city": "Mobile",
        "state": "AL",
        "zipCode": "36695",
        "latitude": 30.628271,
        "longitude": -88.20551,
        "beds": "1/2/3",
        "rent_price/month": "$1,312+/$1,283+/$1,516+",
        "listed_date": null,
        "property_link": "https://www.zillow.com/b/charleston-apartment-homes-mobile-al-5Xkj9D/"
    },
    "house_98": {
        "street_address": "Timberchase Apartments - 925 Beacon Pkwy E, Birmingham, AL",
        "city": "Birmingham",
        "state": "AL",
        "zipCode": "35209",
        "latitude": 33.47697,
        "longitude": -86.81654,
        "beds": "1/2",
        "rent_price/month": "$925+/$1,015+",
        "listed_date": null,
        "property_link": "https://www.zillow.com/b/timberchase-apartments-birmingham-al-5Xk2Dg/"
    },
    "house_99": {
        "street_address": "Pathways - 2656 Pathway Pl, Mobile, AL",
        "city": "Mobile",
        "state": "AL",
        "zipCode": "36606",
        "latitude": 30.678225,
        "longitude": -88.102715,
        "beds": "2/3",
        "rent_price/month": "$795+/$1,083+",
        "listed_date": null,
        "property_link": "https://www.zillow.com/b/pathways-mobile-al-5XjpHr/"
    },
    "house_100": {
        "street_address": "10X Audubon Park - 8160 County Road 64, Daphne, AL",
        "city": "Daphne",
        "state": "AL",
        "zipCode": "36526",
        "latitude": 30.60158,
        "longitude": -87.88295,
        "beds": "1/2/3",
        "rent_price/month": "$1,215+/$1,325+/$1,750+",
        "listed_date": null,
        "property_link": "https://www.zillow.com/b/10x-audubon-park-daphne-al-5XrRrM/"
    },
    "house_101": {
        "street_address": "FarmHaus - 1260 Balch Rd, Madison, AL",
        "city": "Madison",
        "state": "AL",
        "zipCode": "35757",
        "latitude": 34.75402,
        "longitude": -86.767494,
        "beds": "1/2/3",
        "rent_price/month": "$1,211+/$1,355+/$1,640+",
        "listed_date": null,
        "property_link": "https://www.zillow.com/b/farmhaus-madison-al-BvYDhZ/"
    },
    "house_102": {
        "street_address": "Millbrook Pointe - 811 Deatsville Hwy, Millbrook, AL",
        "city": "Millbrook",
        "state": "AL",
        "zipCode": "36054",
        "latitude": 32.525215,
        "longitude": -86.37959,
        "beds": "1/2/3",
        "rent_price/month": "$575+/$675+/$745+",
        "listed_date": null,
        "property_link": "https://www.zillow.com/b/millbrook-pointe-millbrook-al-5Xjq4B/"
    },
    "house_103": {
        "street_address": "Denham Lofts - 1143 1st Ave S, Birmingham, AL",
        "city": "Birmingham",
        "state": "AL",
        "zipCode": "35233",
        "latitude": 33.506664,
        "longitude": -86.81468,
        "beds": "1",
        "rent_price/month": "$1,605+",
        "listed_date": null,
        "property_link": "https://www.zillow.com/b/denham-lofts-birmingham-al-9nTtJP/"
    },
    "house_104": {
        "street_address": "Mirabelle Apartments - 6427 Airport Blvd, Mobile, AL",
        "city": "Mobile",
        "state": "AL",
        "zipCode": "36608",
        "latitude": 30.677282,
        "longitude": -88.19313,
        "beds": "2/3",
        "rent_price/month": "$1,145+/$1,245+",
        "listed_date": null,
        "property_link": "https://www.zillow.com/b/mirabelle-apartments-mobile-al-5Xt8Fb/"
    },
    "house_105": {
        "street_address": "The Grove Moundville - 12898 Grove Cir, Moundville, AL",
        "city": "Moundville",
        "state": "AL",
        "zipCode": "35474",
        "latitude": 33.0522,
        "longitude": -87.589745,
        "beds": "4/5",
        "rent_price/month": "$2,150+/$2,245+",
        "listed_date": null,
        "property_link": "https://www.zillow.com/b/the-grove-moundville-moundville-al-C7xt5x/"
    },
    "house_106": {
        "street_address": "Chapel Lakes Apartments - 100 Chapel Lakes Dr, Wetumpka, AL",
        "city": "Wetumpka",
        "state": "AL",
        "zipCode": "36092",
        "latitude": 32.546215,
        "longitude": -86.226616,
        "beds": "1/2/3",
        "rent_price/month": "$1,100+/$1,170+/$1,275+",
        "listed_date": null,
        "property_link": "https://www.zillow.com/b/chapel-lakes-apartments-wetumpka-al-5Xj9mz/"
    },
    "house_107": {
        "street_address": "Apartment for rent - Parkside at Cottage Hill, 3220 Cottage Hill Rd #6204, Mobile, AL 36606",
        "city": "Mobile",
        "state": "AL",
        "zipCode": "36606",
        "latitude": 30.665684,
        "longitude": -88.12234,
        "beds": 2,
        "rent_price/month": "$1617.0",
        "listed_date": "3 days ago",
        "property_link": "https://www.zillow.com/b/parkside-at-cottage-hill-mobile-al-5cYrz5/"
    },
    "house_108": {
        "street_address": "Summer Place Apartments - 557 Azalea Rd, Mobile, AL",
        "city": "Mobile",
        "state": "AL",
        "zipCode": "36609",
        "latitude": 30.658857,
        "longitude": -88.146484,
        "beds": "1/2/3",
        "rent_price/month": "$715+/$820+/$900+",
        "listed_date": null,
        "property_link": "https://www.zillow.com/b/summer-place-apartments-mobile-al-5Xt8Bc/"
    },
    "house_109": {
        "street_address": "Wood Gardens - 2139 Rocky Ridge Ranch Rd, Birmingham, AL",
        "city": "Birmingham",
        "state": "AL",
        "zipCode": "35216",
        "latitude": 33.383366,
        "longitude": -86.78959,
        "beds": "1/2/3",
        "rent_price/month": "$964+/$1,164+/$1,369+",
        "listed_date": null,
        "property_link": "https://www.zillow.com/b/wood-gardens-birmingham-al-5Xm2Wg/"
    },
    "house_110": {
        "street_address": "Eagle Ridge - Eagle Ridge Dr, Birmingham, AL",
        "city": "Birmingham",
        "state": "AL",
        "zipCode": "35242",
        "latitude": 33.41095,
        "longitude": -86.66801,
        "beds": "1/2",
        "rent_price/month": "$998+/$1,518+",
        "listed_date": null,
        "property_link": "https://www.zillow.com/b/eagle-ridge-birmingham-al-BSrmJR/"
    },
    "house_111": {
        "street_address": "Apartment for rent - Eagle Ridge, Eagle Ridge Dr #9916, Birmingham, AL 35242",
        "city": "Birmingham",
        "state": "AL",
        "zipCode": "35242",
        "latitude": 33.42634,
        "longitude": -86.68705,
        "beds": 2,
        "rent_price/month": "$1436.0",
        "listed_date": "6 hours ago",
        "property_link": "https://www.zillow.com/b/eagle-ridge-birmingham-al-C4WP6K/"
    },
    "house_112": {
        "street_address": "Apartment for rent - Stone Park Villas, 43 Shell Stone Ct, Pike Road, AL 36064",
        "city": "Pike Road",
        "state": "AL",
        "zipCode": "36064",
        "latitude": 32.364674,
        "longitude": -86.055,
        "beds": 4,
        "rent_price/month": "$2250.0",
        "listed_date": "54 days ago",
        "property_link": "https://www.zillow.com/b/stone-park-villas-pike-road-al-B73XdX/"
    },
    "house_113": {
        "street_address": "Elevate 758 - 758 Saint Michael St, Mobile, AL",
        "city": "Mobile",
        "state": "AL",
        "zipCode": "36602",
        "latitude": 30.689917,
        "longitude": -88.05313,
        "beds": "0",
        "rent_price/month": "$912+",
        "listed_date": null,
        "property_link": "https://www.zillow.com/b/elevate-758-mobile-al-5Xk2qT/"
    },
    "house_114": {
        "street_address": "The Kelvin - 6170 Kitt Ln, Huntsville, AL",
        "city": "Huntsville",
        "state": "AL",
        "zipCode": "35806",
        "latitude": 34.73896,
        "longitude": -86.67405,
        "beds": "1/2/3",
        "rent_price/month": "$1,266+/$1,598+/$1,916+",
        "listed_date": null,
        "property_link": "https://www.zillow.com/b/the-kelvin-huntsville-al-C9XZJ4/"
    },
    "house_115": {
        "street_address": "Magnolia Row - 600 Camelot Dr, Athens, AL",
        "city": "Athens",
        "state": "AL",
        "zipCode": "35611",
        "latitude": 34.817974,
        "longitude": -86.952065,
        "beds": "1/2",
        "rent_price/month": "$825+/$940+",
        "listed_date": null,
        "property_link": "https://www.zillow.com/b/magnolia-row-athens-al-5YpjdF/"
    },
    "house_116": {
        "street_address": "Wood Springs - 200 Springs Ave, Birmingham, AL",
        "city": "Birmingham",
        "state": "AL",
        "zipCode": "35242",
        "latitude": 33.429886,
        "longitude": -86.71495,
        "beds": "1/2/3",
        "rent_price/month": "$909+/$1,159+/$1,374+",
        "listed_date": null,
        "property_link": "https://www.zillow.com/b/wood-springs-birmingham-al-5XjT3d/"
    },
    "house_117": {
        "street_address": "Spanish Fort Town Center - 30000 Town Center Ave, Daphne, AL",
        "city": "Daphne",
        "state": "AL",
        "zipCode": "36527",
        "latitude": 30.662619,
        "longitude": -87.903564,
        "beds": "1/2",
        "rent_price/month": "$1,244+/$1,300+",
        "listed_date": null,
        "property_link": "https://www.zillow.com/b/spanish-fort-town-center-spanish-fort-al-5XkrpS/"
    },
    "house_118": {
        "street_address": "The Outlook at Greystone - 7278 Cahaba Valley Rd, Birmingham, AL",
        "city": "Birmingham",
        "state": "AL",
        "zipCode": "35242",
        "latitude": 33.431416,
        "longitude": -86.66581,
        "beds": "0/1/2/3",
        "rent_price/month": "$1,197+/$1,264+/$1,450+/$1,515+",
        "listed_date": null,
        "property_link": "https://www.zillow.com/b/the-outlook-at-greystone-birmingham-al-5XkJxq/"
    },
    "house_119": {
        "street_address": "Midtown Row - 2727 Boultier St, Montgomery, AL",
        "city": "Montgomery",
        "state": "AL",
        "zipCode": "36106",
        "latitude": 32.35322,
        "longitude": -86.290146,
        "beds": "0/1/2",
        "rent_price/month": "$1,106+/$1,438+/$1,647+",
        "listed_date": null,
        "property_link": "https://www.zillow.com/b/midtown-row-montgomery-al-65fFS7/"
    },
    "house_120": {
        "street_address": "The Collins - 1100 Enterprise Way NW, Huntsville, AL",
        "city": "Huntsville",
        "state": "AL",
        "zipCode": "35805",
        "latitude": 34.739212,
        "longitude": -86.67806,
        "beds": "0/1/2/3",
        "rent_price/month": "$1,246+/$1,321+/$1,636+/$2,374+",
        "listed_date": "3D Tour",
        "property_link": "https://www.zillow.com/b/the-collins-huntsville-al-BhWZG8/"
    },
    "house_121": {
        "street_address": "Malibu at Martin Apartments - 8003 Benaroya Ln SW, Huntsville, AL",
        "city": "Huntsville",
        "state": "AL",
        "zipCode": "35802",
        "latitude": 34.66691,
        "longitude": -86.57489,
        "beds": "1/2",
        "rent_price/month": "$726+/$1,009+",
        "listed_date": null,
        "property_link": "https://www.zillow.com/b/malibu-at-martin-apartments-huntsville-al-5Xt8qz/"
    },
    "house_122": {
        "street_address": "Colonial Grand at Liberty Park - 1750 Bartholdi Pkwy, Birmingham, AL",
        "city": "Birmingham",
        "state": "AL",
        "zipCode": "35242",
        "latitude": 33.469345,
        "longitude": -86.690285,
        "beds": "1/2/3",
        "rent_price/month": "$1,373+/$1,433+/$1,698+",
        "listed_date": "3D Tour",
        "property_link": "https://www.zillow.com/b/colonial-grand-at-liberty-park-birmingham-al-BVwNhj/"
    },
    "house_123": {
        "street_address": "Apartment for rent - Colonial Grand at Liberty Park, 1750 Bartholdi Pkwy #10427, Birmingham, AL 35242",
        "city": "Birmingham",
        "state": "AL",
        "zipCode": "35242",
        "latitude": null,
        "longitude": null,
        "beds": 2,
        "rent_price/month": "$1468.0",
        "listed_date": "30 minutes ago",
        "property_link": "https://www.zillow.com/b/colonial-grand-at-liberty-park-birmingham-al-BVwNhj/"
    },
    "house_124": {
        "street_address": "Apartment for rent - Old Shell Lofts Phase 1, 1706 Old Shell Rd, Mobile, AL 36604",
        "city": "Mobile",
        "state": "AL",
        "zipCode": "36604",
        "latitude": 30.690237,
        "longitude": -88.07936,
        "beds": 1,
        "rent_price/month": "$1100.0",
        "listed_date": "111 days ago",
        "property_link": "https://www.zillow.com/b/old-shell-lofts-phase-1-mobile-al-9DhxMr/"
    },
    "house_125": {
        "street_address": "Artisan Twickenham Square - 700 Dorothy Ford Ln SW, Huntsville, AL",
        "city": "Huntsville",
        "state": "AL",
        "zipCode": "35801",
        "latitude": 34.722332,
        "longitude": -86.58481,
        "beds": "1/2",
        "rent_price/month": "$1,265+/$1,694+",
        "listed_date": null,
        "property_link": "https://www.zillow.com/b/artisan-twickenham-square-huntsville-al-5YyFn7/"
    },
    "house_126": {
        "street_address": "Mosby at Bridgestreet - 320 Voyager Way NW, Huntsville, AL",
        "city": "Huntsville",
        "state": "AL",
        "zipCode": "35806",
        "latitude": 34.718807,
        "longitude": -86.67905,
        "beds": "1/2/3",
        "rent_price/month": "$1,265+/$1,789+/$2,124+",
        "listed_date": "Updated yesterday",
        "property_link": "https://www.zillow.com/b/mosby-at-bridgestreet-huntsville-al-C2vGSx/"
    },
    "house_127": {
        "street_address": "Apartment for rent - Mosby at Bridgestreet, 320 Voyager Way NW #2304, Huntsville, AL 35806",
        "city": "Huntsville",
        "state": "AL",
        "zipCode": "35806",
        "latitude": null,
        "longitude": null,
        "beds": 2,
        "rent_price/month": "$1764.0",
        "listed_date": "1 hour ago",
        "property_link": "https://www.zillow.com/b/mosby-at-bridgestreet-huntsville-al-C2vGSx/"
    },
    "house_128": {
        "street_address": "The Crescent at Lakeshore - 1 Rue Maison, Birmingham, AL",
        "city": "Birmingham",
        "state": "AL",
        "zipCode": "35209",
        "latitude": 33.45006,
        "longitude": -86.81347,
        "beds": "2/3",
        "rent_price/month": "$900+/$1,270+",
        "listed_date": "Updated yesterday",
        "property_link": "https://www.zillow.com/b/the-crescent-at-lakeshore-homewood-al-5Xj8dz/"
    },
    "house_129": {
        "street_address": "French Quarter Auburn - 190 E University Dr, Auburn, AL",
        "city": "Auburn",
        "state": "AL",
        "zipCode": "36832",
        "latitude": 32.577206,
        "longitude": -85.489494,
        "beds": "0/2/3",
        "rent_price/month": "$925+/$695+/$665+",
        "listed_date": null,
        "property_link": "https://www.zillow.com/b/french-quarter-auburn-auburn-al-5XqnkD/"
    },
    "house_130": {
        "street_address": "The Kenzie - 4501 Old Caldwell Mill Rd, Birmingham, AL",
        "city": "Birmingham",
        "state": "AL",
        "zipCode": "35242",
        "latitude": 33.413914,
        "longitude": -86.73747,
        "beds": "1/2",
        "rent_price/month": "$921+/$1,018+",
        "listed_date": null,
        "property_link": "https://www.zillow.com/b/the-kenzie-birmingham-al-5Xjj2Q/"
    },
    "house_131": {
        "street_address": "The Arlington at Eastern Shore Centre - 10558 Eastern Shore Blvd, Daphne, AL",
        "city": "Daphne",
        "state": "AL",
        "zipCode": "36527",
        "latitude": 30.672604,
        "longitude": -87.84603,
        "beds": "1/2",
        "rent_price/month": "$1,225+/$1,691+",
        "listed_date": null,
        "property_link": "https://www.zillow.com/b/the-arlington-at-eastern-shore-centre-spanish-fort-al-9mtvmv/"
    },
    "house_132": {
        "street_address": "Colonnade at Eastern Shore Apartment Homes - 830 Us Highway 98, Daphne, AL",
        "city": "Daphne",
        "state": "AL",
        "zipCode": "36526",
        "latitude": 30.587008,
        "longitude": -87.89865,
        "beds": "1/2/3",
        "rent_price/month": "$1,451+/$1,298+/$1,787+",
        "listed_date": null,
        "property_link": "https://www.zillow.com/b/colonnade-at-eastern-shore-apartment-homes-daphne-al-B65CWp/"
    },
    "house_133": {
        "street_address": "Birchall at Ross Bridge - 100 Birchall Ln, Birmingham, AL",
        "city": "Birmingham",
        "state": "AL",
        "zipCode": "35226",
        "latitude": 33.40326,
        "longitude": -86.88506,
        "beds": "1/2/3",
        "rent_price/month": "$1,313+/$1,648+/$1,878+",
        "listed_date": "3D Tour",
        "property_link": "https://www.zillow.com/b/birchall-at-ross-bridge-hoover-al-5gjrLF/"
    },
    "house_134": {
        "street_address": "Grande Pointe - 133 Lake Front Dr, Daphne, AL",
        "city": "Daphne",
        "state": "AL",
        "zipCode": "36526",
        "latitude": 30.650528,
        "longitude": -87.89757,
        "beds": "1/2",
        "rent_price/month": "$988+/$1,238+",
        "listed_date": null,
        "property_link": "https://www.zillow.com/b/grande-pointe-daphne-al-5Xrv8q/"
    },
    "house_135": {
        "street_address": "Lofts at Midtown - 1812 Old Shell Rd, Mobile, AL",
        "city": "Mobile",
        "state": "AL",
        "zipCode": "36607",
        "latitude": 30.688711,
        "longitude": -88.081825,
        "beds": "1/2",
        "rent_price/month": "$1,100+/$1,550+",
        "listed_date": null,
        "property_link": "https://www.zillow.com/b/lofts-at-midtown-mobile-al-BKP5wZ/"
    },
    "house_136": {
        "street_address": "Apartment for rent - Marine St. Lofts, 951 Government St, Mobile, AL 36604",
        "city": "Mobile",
        "state": "AL",
        "zipCode": "36604",
        "latitude": 30.685104,
        "longitude": -88.05548,
        "beds": 1,
        "rent_price/month": "$1280.0",
        "listed_date": "111 days ago",
        "property_link": "https://www.zillow.com/b/marine-st.-lofts-mobile-al-9Dhy27/"
    },
    "house_137": {
        "street_address": "Apartment for rent - MAG1 Auburn, 644 W Magnolia Ave, Auburn, AL 36832",
        "city": "Auburn",
        "state": "AL",
        "zipCode": "36832",
        "latitude": 32.6065,
        "longitude": -85.49374,
        "beds": 1,
        "rent_price/month": "$950.0",
        "listed_date": "102 days ago",
        "property_link": "https://www.zillow.com/b/mag1-auburn-auburn-al-5XqkPh/"
    },
    "house_138": {
        "street_address": "The Brennity at Fairhope - 50 Spring Run Dr, Fairhope, AL",
        "city": "Fairhope",
        "state": "AL",
        "zipCode": "36532",
        "latitude": 30.513115,
        "longitude": -87.8833,
        "beds": "0/1/2",
        "rent_price/month": "$2,975+/$3,825+/$3,675+",
        "listed_date": null,
        "property_link": "https://www.zillow.com/b/the-brennity-at-fairhope-fairhope-al-5Yy4bB/"
    },
    "house_139": {
        "street_address": "The Park at Whispering Pines - 26920 Pollard Rd, Daphne, AL",
        "city": "Daphne",
        "state": "AL",
        "zipCode": "36526",
        "latitude": 30.617395,
        "longitude": -87.88468,
        "beds": "1/2/3",
        "rent_price/month": "$1,313+/$1,410+/$1,779+",
        "listed_date": null,
        "property_link": "https://www.zillow.com/b/the-park-at-whispering-pines-daphne-al-5XktXr/"
    },
    "house_140": {
        "street_address": "Overture Tributary - 3171 Highway 280 S, Birmingham, AL",
        "city": "Birmingham",
        "state": "AL",
        "zipCode": "35243",
        "latitude": 33.447475,
        "longitude": -86.73817,
        "beds": "1/2",
        "rent_price/month": "$1,380+/$2,350+",
        "listed_date": null,
        "property_link": "https://www.zillow.com/b/overture-tributary-birmingham-al-C5hw4C/"
    },
    "house_141": {
        "street_address": "Chase Park - 2421 Chase Park Dr, Montgomery, AL",
        "city": "Montgomery",
        "state": "AL",
        "zipCode": "36110",
        "latitude": 32.42618,
        "longitude": -86.26909,
        "beds": "1/2/3",
        "rent_price/month": "$715+/$815+/$915+",
        "listed_date": null,
        "property_link": "https://www.zillow.com/b/chase-park-montgomery-al-5Yy9rh/"
    },
    "house_142": {
        "street_address": "Apartment for rent - Wakefield Apartments, 561 Village Green Dr E, Mobile, AL 36609",
        "city": "Mobile",
        "state": "AL",
        "zipCode": "36609",
        "latitude": 30.65859,
        "longitude": -88.1404,
        "beds": 2,
        "rent_price/month": "$984.0",
        "listed_date": "111 days ago",
        "property_link": "https://www.zillow.com/b/wakefield-apartments-mobile-al-5XrJNC/"
    },
    "house_143": {
        "street_address": "Common at The Frank - 205 20th St N, Birmingham, AL",
        "city": "Birmingham",
        "state": "AL",
        "zipCode": "35203",
        "latitude": 33.51579,
        "longitude": -86.806206,
        "beds": "0",
        "rent_price/month": "$884+",
        "listed_date": null,
        "property_link": "https://www.zillow.com/b/common-at-the-frank-birmingham-al-9hJbsQ/"
    },
    "house_144": {
        "street_address": "Riverwalk Auburn - 415 N Donahue Dr, Auburn, AL",
        "city": "Auburn",
        "state": "AL",
        "zipCode": "36832",
        "latitude": 32.61316,
        "longitude": -85.49137,
        "beds": "2/3",
        "rent_price/month": "$675+/$625+",
        "listed_date": null,
        "property_link": "https://www.zillow.com/b/riverwalk-auburn-auburn-al-5Xt8gP/"
    },
    "house_145": {
        "street_address": "Central Station - 1612 15th Ave S, Birmingham, AL",
        "city": "Birmingham",
        "state": "AL",
        "zipCode": "35205",
        "latitude": 33.493965,
        "longitude": -86.79983,
        "beds": "1",
        "rent_price/month": "$975+",
        "listed_date": null,
        "property_link": "https://www.zillow.com/b/central-station-birmingham-al-5Xkhww/"
    },
    "house_146": {
        "street_address": "Fern Parc - 4100 Memorial Pkwy SW, Huntsville, AL",
        "city": "Huntsville",
        "state": "AL",
        "zipCode": "35802",
        "latitude": 34.673088,
        "longitude": -86.57661,
        "beds": "1/2/3",
        "rent_price/month": "$955+/$1,015+/$1,264+",
        "listed_date": "3D Tour",
        "property_link": "https://www.zillow.com/b/fern-parc-huntsville-al-5XkfS3/"
    },
    "house_147": {
        "street_address": "Midtown Oaks Townhomes - 2500 Dauphinwood Dr, Mobile, AL",
        "city": "Mobile",
        "state": "AL",
        "zipCode": "36606",
        "latitude": 30.687967,
        "longitude": -88.10601,
        "beds": "2/3",
        "rent_price/month": "$1,039+/$1,149+",
        "listed_date": null,
        "property_link": "https://www.zillow.com/b/midtown-oaks-townhomes-mobile-al-5XqvzF/"
    },
    "house_148": {
        "street_address": "Belforest Villas - 8964 Rand Ave, Daphne, AL",
        "city": "Daphne",
        "state": "AL",
        "zipCode": "36526",
        "latitude": 30.606783,
        "longitude": -87.86947,
        "beds": "1/2/3",
        "rent_price/month": "$1,410+/$1,710+/$2,100+",
        "listed_date": null,
        "property_link": "https://www.zillow.com/b/belforest-villas-daphne-al-BfBJBW/"
    },
    "house_149": {
        "street_address": "Apartment for rent - Dewberry Downs, 2500 Hackberry Ln, Birmingham, AL 35226",
        "city": "Birmingham",
        "state": "AL",
        "zipCode": "35226",
        "latitude": 33.42123,
        "longitude": -86.818016,
        "beds": 2,
        "rent_price/month": "$1189.0",
        "listed_date": "115 days ago",
        "property_link": "https://www.zillow.com/b/dewberry-downs-birmingham-al-5g4MY4/"
    },
    "house_150": {
        "street_address": "Apartment for rent - Highland Towers, 2251 Highland Ave S #1-403, Birmingham, AL 35205",
        "city": "Birmingham",
        "state": "AL",
        "zipCode": "35205",
        "latitude": 33.502663,
        "longitude": -86.789024,
        "beds": 1,
        "rent_price/month": "$900.0",
        "listed_date": "13 days ago",
        "property_link": "https://www.zillow.com/b/highland-towers-birmingham-al-5XjW9Z/"
    },
    "house_151": {
        "street_address": "Apartment for rent - Townview, 2824 Rhodes Cir #8B, Birmingham, AL 35205",
        "city": "Birmingham",
        "state": "AL",
        "zipCode": "35205",
        "latitude": 33.50792,
        "longitude": -86.78394,
        "beds": 1,
        "rent_price/month": "$1050.0",
        "listed_date": "21 days ago",
        "property_link": "https://www.zillow.com/b/townview-birmingham-al-BkqpvQ/"
    },
    "house_152": {
        "street_address": "Sunlake at Edgewater - 2500 Lakefront Dr, Huntsville, AL",
        "city": "Huntsville",
        "state": "AL",
        "zipCode": "35824",
        "latitude": 34.663414,
        "longitude": -86.71975,
        "beds": "1/2/3",
        "rent_price/month": "$805+/$930+/$1,040+",
        "listed_date": null,
        "property_link": "https://www.zillow.com/b/sunlake-at-edgewater-huntsville-al-5Xnf6D/"
    },
    "house_153": {
        "street_address": "The Wallace Apartment Homes - 4116 Newson Rd SW, Huntsville, AL",
        "city": "Huntsville",
        "state": "AL",
        "zipCode": "35805",
        "latitude": 34.692123,
        "longitude": -86.62225,
        "beds": "1/2",
        "rent_price/month": "$690+/$1,089+",
        "listed_date": "3D Tour",
        "property_link": "https://www.zillow.com/b/the-wallace-apartment-homes-huntsville-al-5XqTHY/"
    },
    "house_154": {
        "street_address": "Apartment for rent - Greendale Apartments, 3095 Greendale Rd #3101, Birmingham, AL 35243",
        "city": "Birmingham",
        "state": "AL",
        "zipCode": "35243",
        "latitude": 33.46375,
        "longitude": -86.73099,
        "beds": 2,
        "rent_price/month": "$1350.0",
        "listed_date": "115 days ago",
        "property_link": "https://www.zillow.com/b/greendale-apartments-vestavia-al-5hPSQQ/"
    },
    "house_155": {
        "street_address": "Met on 7th - 2900 7th Ave S, Birmingham, AL",
        "city": "Birmingham",
        "state": "AL",
        "zipCode": "35233",
        "latitude": 33.51194,
        "longitude": -86.78745,
        "beds": "1/2/3",
        "rent_price/month": "$1,240+/$1,885+/$2,530+",
        "listed_date": null,
        "property_link": "https://www.zillow.com/b/met-on-7th-birmingham-al-BFDdC7/"
    },
    "house_156": {
        "street_address": "Apartment for rent - Oak Knoll Apartments, 1256 Navco Rd, Mobile, AL 36605",
        "city": "Mobile",
        "state": "AL",
        "zipCode": "36605",
        "latitude": 30.647451,
        "longitude": -88.10182,
        "beds": 2,
        "rent_price/month": "$995.0",
        "listed_date": "111 days ago",
        "property_link": "https://www.zillow.com/b/oak-knoll-apartments-mobile-al-BbtN9L/"
    },
    "house_157": {
        "street_address": "Constellation - 740 Constellation Place Dr SW, Huntsville, AL",
        "city": "Huntsville",
        "state": "AL",
        "zipCode": "35801",
        "latitude": 34.73645,
        "longitude": -86.55016,
        "beds": "0/1/2/3",
        "rent_price/month": "$1,193+/$1,229+/$1,757+/$2,362+",
        "listed_date": "3D Tour",
        "property_link": "https://www.zillow.com/b/constellation-huntsville-al-BspFpz/"
    },
    "house_158": {
        "street_address": "Grace Garden - 819 30th St S, Birmingham, AL",
        "city": "Birmingham",
        "state": "AL",
        "zipCode": "35205",
        "latitude": 33.51051,
        "longitude": -86.78366,
        "beds": "2",
        "rent_price/month": "$1,200+",
        "listed_date": null,
        "property_link": "https://www.zillow.com/b/grace-garden-birmingham-al-9pZw2q/"
    },
    "house_159": {
        "street_address": "Meadows at Homeplace - 790 Old Quarters Rd, Prattville, AL",
        "city": "Prattville",
        "state": "AL",
        "zipCode": "36066",
        "latitude": 32.444206,
        "longitude": -86.41338,
        "beds": "1/2",
        "rent_price/month": "$1,281+/$1,593+",
        "listed_date": "3D Tour",
        "property_link": "https://www.zillow.com/b/meadows-at-homeplace-prattville-al-5Z6Nwy/"
    },
    "house_160": {
        "street_address": "Apartment for rent - Blue Haus, 2212 15th St, Tuscaloosa, AL 35401",
        "city": "Tuscaloosa",
        "state": "AL",
        "zipCode": "35401",
        "latitude": 33.200165,
        "longitude": -87.56225,
        "beds": 1,
        "rent_price/month": "$1175.0",
        "listed_date": "115 days ago",
        "property_link": "https://www.zillow.com/b/blue-haus-tuscaloosa-al-9DYVCS/"
    },
    "house_161": {
        "street_address": "Silver Oak Apartments - 1144 16th Ave S, Birmingham, AL",
        "city": "Birmingham",
        "state": "AL",
        "zipCode": "35205",
        "latitude": 33.491474,
        "longitude": -86.808304,
        "beds": "1/2",
        "rent_price/month": "$975+/$1,100+",
        "listed_date": null,
        "property_link": "https://www.zillow.com/b/silver-oak-apartments-birmingham-al-5XkKcr/"
    },
    "house_162": {
        "street_address": "Cahaba Brook Apartments - 3250 Bearden Ct, Birmingham, AL",
        "city": "Birmingham",
        "state": "AL",
        "zipCode": "35243",
        "latitude": 33.46236,
        "longitude": -86.729515,
        "beds": "2",
        "rent_price/month": "$1,300+",
        "listed_date": null,
        "property_link": "https://www.zillow.com/b/cahaba-brook-apartments-birmingham-al-BkXXLx/"
    },
    "house_163": {
        "street_address": "Apartment for rent - Places at Red Rocks, 1534 17th St S #1530-I, Birmingham, AL 35205",
        "city": "Birmingham",
        "state": "AL",
        "zipCode": "35205",
        "latitude": 33.49321,
        "longitude": -86.79854,
        "beds": 1,
        "rent_price/month": "$1000.0",
        "listed_date": "31 days ago",
        "property_link": "https://www.zillow.com/b/places-at-red-rocks-birmingham-al-5XqJJn/"
    },
    "house_164": {
        "street_address": "Apartment for rent - Places at Red Rocks, 1534 17th St S APT K, Birmingham, AL 35205",
        "city": "Birmingham",
        "state": "AL",
        "zipCode": "35205",
        "latitude": 33.49354,
        "longitude": -86.79862,
        "beds": 2,
        "rent_price/month": "$1600.0",
        "listed_date": "31 days ago",
        "property_link": "https://www.zillow.com/b/places-at-red-rocks-birmingham-al-5XqJJn/"
    },
    "house_165": {
        "street_address": "The Madrid - 1927 15th Ave S, Birmingham, AL",
        "city": "Birmingham",
        "state": "AL",
        "zipCode": "35205",
        "latitude": 33.496635,
        "longitude": -86.79374,
        "beds": "0/1",
        "rent_price/month": "$725+/$850+",
        "listed_date": null,
        "property_link": "https://www.zillow.com/b/the-madrid-birmingham-al-5XjjgM/"
    },
    "house_166": {
        "street_address": "The Windsor - 3901 Clairmont Ave S, Birmingham, AL",
        "city": "Birmingham",
        "state": "AL",
        "zipCode": "35222",
        "latitude": 33.514954,
        "longitude": -86.77214,
        "beds": "0/1",
        "rent_price/month": "$775+/$875+",
        "listed_date": null,
        "property_link": "https://www.zillow.com/b/the-windsor-birmingham-al-5Xn8Rv/"
    },
    "house_167": {
        "street_address": "Apartment for rent - Rondo Apartments, 3993 Cottage Hill Rd, Mobile, AL 36609",
        "city": "Mobile",
        "state": "AL",
        "zipCode": "36609",
        "latitude": 30.651596,
        "longitude": -88.142494,
        "beds": 2,
        "rent_price/month": "$800.0",
        "listed_date": "115 days ago",
        "property_link": "https://www.zillow.com/b/rondo-apartments-mobile-al-5XrCy2/"
    },
    "house_168": {
        "street_address": "The Drake - 1931 15th Ave S, Birmingham, AL",
        "city": "Birmingham",
        "state": "AL",
        "zipCode": "35205",
        "latitude": 33.496716,
        "longitude": -86.79362,
        "beds": "0/1",
        "rent_price/month": "$750+/$850+",
        "listed_date": null,
        "property_link": "https://www.zillow.com/b/the-drake-birmingham-al-5XjjgH/"
    },
    "house_169": {
        "street_address": "Steel City Flats - 1407 17th Ave S, Birmingham, AL",
        "city": "Birmingham",
        "state": "AL",
        "zipCode": "35205",
        "latitude": 33.490276,
        "longitude": -86.80254,
        "beds": "0",
        "rent_price/month": "$750+",
        "listed_date": null,
        "property_link": "https://www.zillow.com/b/steel-city-flats-birmingham-al-5bHhSh/"
    },
    "house_170": {
        "street_address": "Apartment for rent - Broad St Lofts, 304 S Broad St, Mobile, AL 36604",
        "city": "Mobile",
        "state": "AL",
        "zipCode": "36604",
        "latitude": 30.681002,
        "longitude": -88.05386,
        "beds": 1,
        "rent_price/month": "$1285.0",
        "listed_date": "111 days ago",
        "property_link": "https://www.zillow.com/b/broad-st-lofts-mobile-al-Bthvr3/"
    },
    "house_171": {
        "street_address": "Apartment for rent - Legacy at Country Club, 1601 Mimosa Park Rd, Tuscaloosa, AL 35405",
        "city": "Tuscaloosa",
        "state": "AL",
        "zipCode": "35405",
        "latitude": 33.15522,
        "longitude": -87.55817,
        "beds": 2,
        "rent_price/month": "$825.0",
        "listed_date": "115 days ago",
        "property_link": "https://www.zillow.com/b/legacy-at-country-club-tuscaloosa-al-5XjLLk/"
    },
    "house_172": {
        "street_address": "Nova at Highland Park - 2912 Pawnee Ave, Birmingham, AL",
        "city": "Birmingham",
        "state": "AL",
        "zipCode": "35205",
        "latitude": 33.50385,
        "longitude": -86.77942,
        "beds": "1",
        "rent_price/month": "$1,050+",
        "listed_date": null,
        "property_link": "https://www.zillow.com/b/nova-at-highland-park-birmingham-al-Bj9nPf/"
    },
    "house_173": {
        "street_address": "Sycamore Manor - 1248 22nd St S, Birmingham, AL",
        "city": "Birmingham",
        "state": "AL",
        "zipCode": "35205",
        "latitude": 33.50058,
        "longitude": -86.78802,
        "beds": "1",
        "rent_price/month": "$930+",
        "listed_date": null,
        "property_link": "https://www.zillow.com/b/sycamore-manor-birmingham-al-5Xjjfj/"
    },
    "house_174": {
        "street_address": "Old Shell Commons - 1254 Old Shell Rd, Mobile, AL",
        "city": "Mobile",
        "state": "AL",
        "zipCode": "36604",
        "latitude": 30.691114,
        "longitude": -88.063805,
        "beds": "1/2",
        "rent_price/month": "$795+/$925+",
        "listed_date": "Updated yesterday",
        "property_link": "https://www.zillow.com/b/old-shell-commons-mobile-al-5Yvz7t/"
    },
    "house_175": {
        "street_address": "Apartment for rent - Club View Apartments, 8917 Roebuck Blvd, Birmingham, AL 35206",
        "city": "Birmingham",
        "state": "AL",
        "zipCode": "35206",
        "latitude": 33.582127,
        "longitude": -86.710556,
        "beds": 2,
        "rent_price/month": "$825.0",
        "listed_date": "115 days ago",
        "property_link": "https://www.zillow.com/homedetails/8917-Roebuck-Blvd-Birmingham-AL-35206/944320_zpid/"
    },
    "house_176": {
        "street_address": "The Brennity at Daphne - 27440 County Road 13, Daphne, AL",
        "city": "Daphne",
        "state": "AL",
        "zipCode": "36526",
        "latitude": 30.623964,
        "longitude": -87.86676,
        "beds": "0",
        "rent_price/month": "$3,350+",
        "listed_date": null,
        "property_link": "https://www.zillow.com/b/the-brennity-at-daphne-daphne-al-9DgyFR/"
    },
    "house_177": {
        "street_address": "Ascent on 34th - 1310 34th St S, Birmingham, AL",
        "city": "Birmingham",
        "state": "AL",
        "zipCode": "35205",
        "latitude": 33.50572,
        "longitude": -86.77582,
        "beds": "1/2",
        "rent_price/month": "$1,000+/$1,150+",
        "listed_date": null,
        "property_link": "https://www.zillow.com/b/ascent-on-34th-birmingham-al-9QZGg5/"
    },
    "house_178": {
        "street_address": "Deer Run - 3142 Flynn Rd, Dothan, AL",
        "city": "Dothan",
        "state": "AL",
        "zipCode": "36303",
        "latitude": 31.272362,
        "longitude": -85.43789,
        "beds": "2/3",
        "rent_price/month": "$950+/$1,100+",
        "listed_date": null,
        "property_link": "https://www.zillow.com/b/deer-run-dothan-al-9Dftqy/"
    },
    "house_179": {
        "street_address": "1507 7th Ave - 1507 7th Ave, Jasper, AL",
        "city": "Jasper",
        "state": "AL",
        "zipCode": "35501",
        "latitude": 33.836273,
        "longitude": -87.28209,
        "beds": "2",
        "rent_price/month": "$735+",
        "listed_date": null,
        "property_link": "https://www.zillow.com/b/1507-7th-ave-jasper-al-9nMLMj/"
    },
    "house_180": {
        "street_address": "Apartment for rent - State Ave. Apartments, 2004 State Ave SW #2006-C, Decatur, AL 35601",
        "city": "Decatur",
        "state": "AL",
        "zipCode": "35601",
        "latitude": 34.574734,
        "longitude": -87.0045,
        "beds": 2,
        "rent_price/month": "$800.0",
        "listed_date": "6 days ago",
        "property_link": "https://www.zillow.com/b/State-Ave.-Apartments-Decatur-AL/34.574734,-87.0045_ll/"
    },
    "house_181": {
        "street_address": "Apartment for rent - 2088 Eagle Ridge Dr, Birmingham, AL 35242",
        "city": "Birmingham",
        "state": "AL",
        "zipCode": "35242",
        "latitude": 33.426853,
        "longitude": -86.68525,
        "beds": 3,
        "rent_price/month": "$2500.0",
        "listed_date": "8 days ago",
        "property_link": "https://www.zillow.com/homedetails/2088-Eagle-Ridge-Dr-Birmingham-AL-35242/104069527_zpid/"
    },
    "house_182": {
        "street_address": "Apartment for rent - 2 bed, $700, 110 Ridgeway Dr #3, Enterprise, AL 36330",
        "city": "Enterprise",
        "state": "AL",
        "zipCode": "36330",
        "latitude": 31.333803,
        "longitude": -85.80327,
        "beds": 2,
        "rent_price/month": "$700.0",
        "listed_date": "3 days ago",
        "property_link": "https://www.zillow.com/b/2-bed,-%24700-enterprise-al-5XzyMb/"
    },
    "house_183": {
        "street_address": "Ashley Manor Townhomes - 1218 Brookline Ave SW, Decatur, AL",
        "city": "Decatur",
        "state": "AL",
        "zipCode": "35603",
        "latitude": 34.583168,
        "longitude": -87.03768,
        "beds": "1/2",
        "rent_price/month": "$995+/$1,125+",
        "listed_date": null,
        "property_link": "https://www.zillow.com/b/ashley-manor-townhomes-decatur-al-9Qb6YK/"
    },
    "house_184": {
        "street_address": "House for rent - 1506 Driftwood Dr N, Mobile, AL 36605",
        "city": "Mobile",
        "state": "AL",
        "zipCode": "36605",
        "latitude": 30.591799,
        "longitude": -88.07813,
        "beds": 4,
        "rent_price/month": "$1500.0",
        "listed_date": "19 hours ago",
        "property_link": "https://www.zillow.com/homedetails/1506-Driftwood-Dr-N-Mobile-AL-36605/51034649_zpid/"
    },
    "house_185": {
        "street_address": "House for rent - 8708 Lantern Way, Montgomery, AL 36116",
        "city": "Montgomery",
        "state": "AL",
        "zipCode": "36116",
        "latitude": 32.33575,
        "longitude": -86.16752,
        "beds": 3,
        "rent_price/month": "$2400.0",
        "listed_date": "7 hours ago",
        "property_link": "https://www.zillow.com/homedetails/8708-Lantern-Way-Montgomery-AL-36116/120593498_zpid/"
    },
    "house_186": {
        "street_address": "For Rent - 25806 Pollard Rd, Daphne, AL",
        "city": "Daphne",
        "state": "AL",
        "zipCode": "36526",
        "latitude": 30.601967,
        "longitude": -87.885635,
        "beds": "3",
        "rent_price/month": "$1,700+",
        "listed_date": "Updated yesterday",
        "property_link": "https://www.zillow.com/b/25806-pollard-rd-daphne-al-5XrD8J/"
    },
    "house_187": {
        "street_address": "House for rent - 536 16th Ter NW, Birmingham, AL 35215",
        "city": "Birmingham",
        "state": "AL",
        "zipCode": "35215",
        "latitude": 33.631084,
        "longitude": -86.69925,
        "beds": 3,
        "rent_price/month": "$1325.0",
        "listed_date": "4 hours ago",
        "property_link": "https://www.zillow.com/homedetails/536-16th-Ter-NW-Birmingham-AL-35215/904410_zpid/"
    },
    "house_188": {
        "street_address": "House for rent - 8614 2nd Ave N, Birmingham, AL 35206",
        "city": "Birmingham",
        "state": "AL",
        "zipCode": "35206",
        "latitude": 33.5776,
        "longitude": -86.72027,
        "beds": 3,
        "rent_price/month": "$800.0",
        "listed_date": "1 hour ago",
        "property_link": "https://www.zillow.com/homedetails/8614-2nd-Ave-N-Birmingham-AL-35206/944274_zpid/"
    },
    "house_189": {
        "street_address": "House for rent - 604 Cedar Crest Dr, Vestavia Hills, AL 35216",
        "city": "Vestavia Hills",
        "state": "AL",
        "zipCode": "35216",
        "latitude": 33.39744,
        "longitude": -86.78232,
        "beds": 2,
        "rent_price/month": "$1495.0",
        "listed_date": "2 hours ago",
        "property_link": "https://www.zillow.com/homedetails/604-Cedar-Crest-Dr-Vestavia-Hills-AL-35216/1064009_zpid/"
    },
    "house_190": {
        "street_address": "House for rent - 754 11th Ave SE, Graysville, AL 35073",
        "city": "Graysville",
        "state": "AL",
        "zipCode": "35073",
        "latitude": 33.61776,
        "longitude": -86.96236,
        "beds": 3,
        "rent_price/month": "$1210.0",
        "listed_date": "7 hours ago",
        "property_link": "https://www.zillow.com/homedetails/754-11th-Ave-SE-Graysville-AL-35073/917349_zpid/"
    },
    "house_191": {
        "street_address": "House for rent - 21122 Zinfandel Ln, Silverhill, AL 36576",
        "city": "Silverhill",
        "state": "AL",
        "zipCode": "36576",
        "latitude": 30.532587,
        "longitude": -87.768906,
        "beds": 3,
        "rent_price/month": "$1595.0",
        "listed_date": "7 hours ago",
        "property_link": "https://www.zillow.com/homedetails/21122-Zinfandel-Ln-Silverhill-AL-36576/300536143_zpid/"
    },
    "house_192": {
        "street_address": "House for rent - 2105 2nd Ave, Tuscaloosa, AL 35401",
        "city": "Tuscaloosa",
        "state": "AL",
        "zipCode": "35401",
        "latitude": 33.191544,
        "longitude": -87.53837,
        "beds": 3,
        "rent_price/month": "$2100.0",
        "listed_date": "10 hours ago",
        "property_link": "https://www.zillow.com/homedetails/2105-2nd-Ave-Tuscaloosa-AL-35401/50858842_zpid/"
    },
    "house_193": {
        "street_address": "House for rent - 270 Hathaway Ln, Odenville, AL 35120",
        "city": "Odenville",
        "state": "AL",
        "zipCode": "35120",
        "latitude": 33.648037,
        "longitude": -86.478195,
        "beds": 3,
        "rent_price/month": "$1165.0",
        "listed_date": "11 hours ago",
        "property_link": "https://www.zillow.com/homedetails/270-Hathaway-Ln-Odenville-AL-35120/108348653_zpid/"
    },
    "house_194": {
        "street_address": "House for rent - 11 Burlington Dr, Fairhope, AL 36532",
        "city": "Fairhope",
        "state": "AL",
        "zipCode": "36532",
        "latitude": 30.522602,
        "longitude": -87.87469,
        "beds": 3,
        "rent_price/month": "$1600.0",
        "listed_date": "11 hours ago",
        "property_link": "https://www.zillow.com/homedetails/11-Burlington-Dr-Fairhope-AL-36532/72745344_zpid/"
    },
    "house_195": {
        "street_address": "For Rent - 802 W Longleaf Dr, Auburn, AL",
        "city": "Auburn",
        "state": "AL",
        "zipCode": "36832",
        "latitude": 32.574566,
        "longitude": -85.51648,
        "beds": "4",
        "rent_price/month": "$1,600+",
        "listed_date": "Updated yesterday",
        "property_link": "https://www.zillow.com/b/802-w-longleaf-dr-auburn-al-5YMDJH/"
    },
    "house_196": {
        "street_address": "House for rent - 120 Halal Ct, Auburn, AL 36830",
        "city": "Auburn",
        "state": "AL",
        "zipCode": "36830",
        "latitude": 32.619717,
        "longitude": -85.48091,
        "beds": 3,
        "rent_price/month": "$1200.0",
        "listed_date": "16 hours ago",
        "property_link": "https://www.zillow.com/homedetails/120-Halal-Ct-Auburn-AL-36830/2065453316_zpid/"
    },
    "house_197": {
        "street_address": "Apartment for rent - 2910 22nd St #B, Tuscaloosa, AL 35401",
        "city": "Tuscaloosa",
        "state": "AL",
        "zipCode": "35401",
        "latitude": 33.192783,
        "longitude": -87.57335,
        "beds": 1,
        "rent_price/month": "$425.0",
        "listed_date": "16 hours ago",
        "property_link": "https://www.zillow.com/homedetails/2910-22nd-St-B-Tuscaloosa-AL-35401/2059097607_zpid/"
    },
    "house_198": {
        "street_address": "For Rent - 1477 N Donahue Dr, Auburn, AL",
        "city": "Auburn",
        "state": "AL",
        "zipCode": "36830",
        "latitude": 32.632767,
        "longitude": -85.50048,
        "beds": "3",
        "rent_price/month": "$1,400+",
        "listed_date": "Updated yesterday",
        "property_link": "https://www.zillow.com/b/1477-n-donahue-dr-auburn-al-5YMDLW/"
    },
    "house_199": {
        "street_address": "House for rent - 917 35th Ave, Tuscaloosa, AL 35401",
        "city": "Tuscaloosa",
        "state": "AL",
        "zipCode": "35401",
        "latitude": 33.201134,
        "longitude": -87.581154,
        "beds": 3,
        "rent_price/month": "$900.0",
        "listed_date": "16 hours ago",
        "property_link": "https://www.zillow.com/homedetails/917-35th-Ave-Tuscaloosa-AL-35401/50856043_zpid/"
    },
    "house_200": {
        "street_address": "House for rent - 4813 Oak Meadow Dr, Northport, AL 35473",
        "city": "Northport",
        "state": "AL",
        "zipCode": "35473",
        "latitude": 33.272106,
        "longitude": -87.606094,
        "beds": 2,
        "rent_price/month": "$625.0",
        "listed_date": "16 hours ago",
        "property_link": "https://www.zillow.com/homedetails/4813-Oak-Meadow-Dr-Northport-AL-35473/2097564306_zpid/"
    },
    "house_201": {
        "street_address": "Apartment for rent - 4105 Broyles Ave SW, 4105 Broyles Ave SW APT G, Huntsville, AL 35805",
        "city": "Huntsville",
        "state": "AL",
        "zipCode": "35805",
        "latitude": 34.691803,
        "longitude": -86.62631,
        "beds": 2,
        "rent_price/month": "$850.0",
        "listed_date": "3 hours ago",
        "property_link": "https://www.zillow.com/b/4105-broyles-ave-sw-huntsville-al-5j28j8/"
    },
    "house_202": {
        "street_address": "House for rent - 3963 Whirlaway Dr, Tuscaloosa, AL 35406",
        "city": "Tuscaloosa",
        "state": "AL",
        "zipCode": "35406",
        "latitude": 33.27047,
        "longitude": -87.48426,
        "beds": 4,
        "rent_price/month": "$2000.0",
        "listed_date": "19 hours ago",
        "property_link": "https://www.zillow.com/homedetails/3963-Whirlaway-Dr-Tuscaloosa-AL-35406/35743763_zpid/"
    },
    "house_203": {
        "street_address": "House for rent - 149 Huntley Pkwy, Pelham, AL 35124",
        "city": "Pelham",
        "state": "AL",
        "zipCode": "35124",
        "latitude": 33.276703,
        "longitude": -86.79436,
        "beds": 3,
        "rent_price/month": "$2795.0",
        "listed_date": "19 hours ago",
        "property_link": "https://www.zillow.com/homedetails/149-Huntley-Pkwy-Pelham-AL-35124/2059099890_zpid/"
    },
    "house_204": {
        "street_address": "House for rent - 420 Price Dr, Birmingham, AL 35215",
        "city": "Birmingham",
        "state": "AL",
        "zipCode": "35215",
        "latitude": 33.59682,
        "longitude": -86.69899,
        "beds": 3,
        "rent_price/month": "$1045.0",
        "listed_date": "20 hours ago",
        "property_link": "https://www.zillow.com/homedetails/420-Price-Dr-Birmingham-AL-35215/910424_zpid/"
    },
    "house_205": {
        "street_address": "House for rent - 1048 Apple St, Birmingham, AL 35214",
        "city": "Birmingham",
        "state": "AL",
        "zipCode": "35214",
        "latitude": 33.554813,
        "longitude": -86.88918,
        "beds": 3,
        "rent_price/month": "$1045.0",
        "listed_date": "20 hours ago",
        "property_link": "https://www.zillow.com/homedetails/1048-Apple-St-Birmingham-AL-35214/932592_zpid/"
    },
    "house_206": {
        "street_address": "House for rent - 1225 Robin Ln, Birmingham, AL 35235",
        "city": "Birmingham",
        "state": "AL",
        "zipCode": "35235",
        "latitude": 33.61004,
        "longitude": -86.65759,
        "beds": 4,
        "rent_price/month": "$1900.0",
        "listed_date": "23 hours ago",
        "property_link": "https://www.zillow.com/homedetails/1225-Robin-Ln-Birmingham-AL-35235/897769_zpid/"
    },
    "house_207": {
        "street_address": "House for rent - 8052 Rockhampton Cir, Helena, AL 35080",
        "city": "Helena",
        "state": "AL",
        "zipCode": "35080",
        "latitude": 33.27883,
        "longitude": -86.84588,
        "beds": 3,
        "rent_price/month": "$1750.0",
        "listed_date": "1 day ago",
        "property_link": "https://www.zillow.com/homedetails/8052-Rockhampton-Cir-Helena-AL-35080/50892280_zpid/"
    },
    "house_208": {
        "street_address": "Townhouse for rent - 439 Cambrian Ridge Trl, Pelham, AL 35124",
        "city": "Pelham",
        "state": "AL",
        "zipCode": "35124",
        "latitude": 33.296635,
        "longitude": -86.80315,
        "beds": 3,
        "rent_price/month": "$1450.0",
        "listed_date": "1 day ago",
        "property_link": "https://www.zillow.com/homedetails/439-Cambrian-Ridge-Trl-Pelham-AL-35124/35727916_zpid/"
    },
    "house_209": {
        "street_address": "For Rent - 260 Willow Ridge Ln, Odenville, AL",
        "city": "Odenville",
        "state": "AL",
        "zipCode": "35120",
        "latitude": 33.653275,
        "longitude": -86.45608,
        "beds": "3",
        "rent_price/month": "$1,395+",
        "listed_date": "6 days ago",
        "property_link": "https://www.zillow.com/b/Odenville-AL/33.653275,-86.45608_ll/"
    },
    "house_210": {
        "street_address": "House for rent - 124 Clover Ln, Springville, AL 35146",
        "city": "Springville",
        "state": "AL",
        "zipCode": "35146",
        "latitude": 33.709938,
        "longitude": -86.37135,
        "beds": 3,
        "rent_price/month": "$1625.0",
        "listed_date": "2 days ago",
        "property_link": "https://www.zillow.com/homedetails/124-Clover-Ln-Springville-AL-35146/2070252956_zpid/"
    },
    "house_211": {
        "street_address": "House for rent - 112 Sherwood Dr, Rainbow City, AL 35906",
        "city": "Rainbow City",
        "state": "AL",
        "zipCode": "35906",
        "latitude": 33.95173,
        "longitude": -86.04101,
        "beds": 3,
        "rent_price/month": "$1550.0",
        "listed_date": "2 days ago",
        "property_link": "https://www.zillow.com/homedetails/112-Sherwood-Dr-Rainbow-City-AL-35906/75979696_zpid/"
    },
    "house_212": {
        "street_address": "House for rent - 6380 Rainbow Row, Pell City, AL 35128",
        "city": "Pell City",
        "state": "AL",
        "zipCode": "35128",
        "latitude": 33.53634,
        "longitude": -86.26952,
        "beds": 2,
        "rent_price/month": "$1425.0",
        "listed_date": "2 days ago",
        "property_link": "https://www.zillow.com/homedetails/6380-Rainbow-Row-Pell-City-AL-35128/2075545537_zpid/"
    },
    "house_213": {
        "street_address": "Apartment for rent - 4439 N Slauson Cir UNIT 6616, Montgomery, AL 36106",
        "city": "Montgomery",
        "state": "AL",
        "zipCode": "36106",
        "latitude": 32.339485,
        "longitude": -86.233894,
        "beds": 3,
        "rent_price/month": "$1200.0",
        "listed_date": "2 days ago",
        "property_link": "https://www.zillow.com/homedetails/4439-N-Slauson-Cir-UNIT-6616-Montgomery-AL-36106/2059109952_zpid/"
    },
    "house_214": {
        "street_address": "House for rent - 1629 N St SE, Decatur, AL 35601",
        "city": "Decatur",
        "state": "AL",
        "zipCode": "35601",
        "latitude": 34.58114,
        "longitude": -86.96532,
        "beds": 3,
        "rent_price/month": "$1495.0",
        "listed_date": "4 days ago",
        "property_link": "https://www.zillow.com/homedetails/1629-N-St-SE-Decatur-AL-35601/2062594610_zpid/"
    },
    "house_215": {
        "street_address": "For Rent - 153 Lena Ln, Meridianville, AL",
        "city": "Meridianville",
        "state": "AL",
        "zipCode": "35759",
        "latitude": 34.868515,
        "longitude": -86.55537,
        "beds": "3/4",
        "rent_price/month": "$1,750+/$1,895+",
        "listed_date": "3 days ago",
        "property_link": "https://www.zillow.com/b/Meridianville-AL/34.868515,-86.55537_ll/"
    },
    "house_216": {
        "street_address": "For Rent - 2104 Ellsworth Loop Dr, Cullman, AL",
        "city": "Cullman",
        "state": "AL",
        "zipCode": "35055",
        "latitude": 34.154423,
        "longitude": -86.76149,
        "beds": "2/3/4/5",
        "rent_price/month": "$750+/$1,745+/$1,795+/$1,950+",
        "listed_date": "3 days ago",
        "property_link": "https://www.zillow.com/b/Cullman-AL/34.154423,-86.76149_ll/"
    },
    "house_217": {
        "street_address": "For Rent - 110 County Road 1701, Cullman, AL",
        "city": "Cullman",
        "state": "AL",
        "zipCode": "35058",
        "latitude": 34.230347,
        "longitude": -86.733246,
        "beds": "3/4",
        "rent_price/month": "$1,645+/$1,695+",
        "listed_date": "3 days ago",
        "property_link": "https://www.zillow.com/b/Cullman-AL/34.230347,-86.733246_ll/"
    },
    "house_218": {
        "street_address": "House for rent - 2090 Springfield Dr, Chelsea, AL 35043",
        "city": "Chelsea",
        "state": "AL",
        "zipCode": "35043",
        "latitude": 33.341457,
        "longitude": -86.57596,
        "beds": 3,
        "rent_price/month": "$2095.0",
        "listed_date": "2 days ago",
        "property_link": "https://www.zillow.com/homedetails/2090-Springfield-Dr-Chelsea-AL-35043/336935415_zpid/"
    },
    "house_219": {
        "street_address": "Apartment for rent - 1343 Felder Ave, Montgomery, AL 36106",
        "city": "Montgomery",
        "state": "AL",
        "zipCode": "36106",
        "latitude": 32.358967,
        "longitude": -86.286804,
        "beds": 2,
        "rent_price/month": "$1100.0",
        "listed_date": "3D Tour",
        "property_link": "https://www.zillow.com/homedetails/1343-Felder-Ave-Montgomery-AL-36106/120585411_zpid/"
    },
    "house_220": {
        "street_address": "House for rent - 105 Wakefield Way, Enterprise, AL 36330",
        "city": "Enterprise",
        "state": "AL",
        "zipCode": "36330",
        "latitude": 31.322325,
        "longitude": -85.7985,
        "beds": 2,
        "rent_price/month": "$1275.0",
        "listed_date": "3 days ago",
        "property_link": "https://www.zillow.com/homedetails/105-Wakefield-Way-Enterprise-AL-36330/109517999_zpid/"
    },
    "house_221": {
        "street_address": "House for rent - 2754 County Line Dr, Trafford, AL 35172",
        "city": "Trafford",
        "state": "AL",
        "zipCode": "35172",
        "latitude": 33.819405,
        "longitude": -86.73503,
        "beds": 4,
        "rent_price/month": "$1200.0",
        "listed_date": "4 days ago",
        "property_link": "https://www.zillow.com/homedetails/2754-County-Line-Dr-Trafford-AL-35172/870856_zpid/"
    },