{
    "house_1": {
        "street_address": "Apartment for rent - Moose Creek, 3397 Bellwood St #A2, North Pole, AK 99705",
        "city": "North Pole",
        "state": "AK",
        "zipCode": "99705",
        "latitude": 64.71448,
        "longitude": -147.16443,
        "beds": 2,
        "rent_price/month": "$1450.0",
        "listed_date": "70 days ago",
        "property_link": "https://www.zillow.com/b/moose-creek-north-pole-ak-5XpKPx/"
    },
    "house_2": {
        "street_address": "Eielson Air Force Base - 663 Kodiak St, Eielson Afb, AK",
        "city": "Eielson Afb",
        "state": "AK",
        "zipCode": "99702",
        "latitude": 64.679085,
        "longitude": -147.08319,
        "beds": "2/3/4/5",
        "rent_price/month": "$1,602+/$1,602+/$1,602+/$1,602+",
        "listed_date": null,
        "property_link": "https://www.zillow.com/b/eielson-air-force-base-eielson-afb-ak-BLLhV4/"
    },
    "house_3": {
        "street_address": "Park Plaza - 201 E 16th Ave, Anchorage, AK",
        "city": "Anchorage",
        "state": "AK",
        "zipCode": "99501",
        "latitude": 61.206375,
        "longitude": -149.88052,
        "beds": "1",
        "rent_price/month": "$1,150+",
        "listed_date": null,
        "property_link": "https://www.zillow.com/b/park-plaza-anchorage-ak-5XrgTX/"
    },
    "house_4": {
        "street_address": "The Outlook Apartments - 234 E 15th Ave, Anchorage, AK",
        "city": "Anchorage",
        "state": "AK",
        "zipCode": "99501",
        "latitude": 61.207287,
        "longitude": -149.87996,
        "beds": "1/2",
        "rent_price/month": "$1,195+/$1,475+",
        "listed_date": null,
        "property_link": "https://www.zillow.com/b/the-outlook-apartments-anchorage-ak-5XnMqs/"
    },
    "house_5": {
        "street_address": "Park Plaza II - 1553 A St, Anchorage, AK",
        "city": "Anchorage",
        "state": "AK",
        "zipCode": "99501",
        "latitude": 61.206474,
        "longitude": -149.88274,
        "beds": "0/1",
        "rent_price/month": "$1,520+/$1,715+",
        "listed_date": null,
        "property_link": "https://www.zillow.com/b/park-plaza-ii-anchorage-ak-5Xmndn/"
    },
    "house_6": {
        "street_address": "North Haven Communities Fort Wainwright - 3401 Santiago Ave, Fort Wainwright, AK",
        "city": "Fort Wainwright",
        "state": "AK",
        "zipCode": "99703",
        "latitude": 64.84162,
        "longitude": -147.60965,
        "beds": "3/4/5",
        "rent_price/month": "$1,833+/$1,833+/$1,833+",
        "listed_date": null,
        "property_link": "https://www.zillow.com/b/north-haven-communities-fort-wainwright-fort-wainwright-ak-BLGyWy/"
    },
    "house_7": {
        "street_address": "Admirals Cove - 6029 Debarr Rd, Anchorage, AK",
        "city": "Anchorage",
        "state": "AK",
        "zipCode": "99504",
        "latitude": 61.21004,
        "longitude": -149.7683,
        "beds": "2",
        "rent_price/month": "$1,775+",
        "listed_date": null,
        "property_link": "https://www.zillow.com/b/admirals-cove-anchorage-ak-5XqYZY/"
    },
    "house_8": {
        "street_address": "La Maisonnette - 1340 W 26th Ave, Anchorage, AK",
        "city": "Anchorage",
        "state": "AK",
        "zipCode": "99503",
        "latitude": 61.197315,
        "longitude": -149.90945,
        "beds": "1/2",
        "rent_price/month": "$1,500+/$1,600+",
        "listed_date": "3D Tour",
        "property_link": "https://www.zillow.com/b/la-maisonnette-anchorage-ak-5XrZcY/"
    },
    "house_9": {
        "street_address": "Susitna Ridge - 1601 Medfra St, Anchorage, AK",
        "city": "Anchorage",
        "state": "AK",
        "zipCode": "99501",
        "latitude": 61.205498,
        "longitude": -149.85776,
        "beds": "1/2",
        "rent_price/month": "$1,135+/$1,340+",
        "listed_date": null,
        "property_link": "https://www.zillow.com/b/susitna-ridge-anchorage-ak-5Xrngv/"
    },
    "house_10": {
        "street_address": "The Highlands Luxury Residences - 2134 E 56th Ave, Anchorage, AK",
        "city": "Anchorage",
        "state": "AK",
        "zipCode": "99507",
        "latitude": 61.16882,
        "longitude": -149.84312,
        "beds": "1/2",
        "rent_price/month": "$1,775+/$2,175+",
        "listed_date": "3D Tour",
        "property_link": "https://www.zillow.com/b/the-highlands-luxury-residences-anchorage-ak-5XrL75/"
    },
    "house_11": {
        "street_address": "Birchwood Homes - 1066 Turnagin Loop, Fairbanks, AK",
        "city": "Fairbanks",
        "state": "AK",
        "zipCode": "99701",
        "latitude": 64.84068,
        "longitude": -147.65744,
        "beds": "3/4",
        "rent_price/month": "$2,135+/$2,280+",
        "listed_date": null,
        "property_link": "https://www.zillow.com/b/birchwood-homes-fairbanks-ak-5XrXRR/"
    },
    "house_12": {
        "street_address": "Chugach South - 9600 Morningside Loop, Anchorage, AK",
        "city": "Anchorage",
        "state": "AK",
        "zipCode": "99515",
        "latitude": 61.13372,
        "longitude": -149.86298,
        "beds": "2",
        "rent_price/month": "$1,505+",
        "listed_date": null,
        "property_link": "https://www.zillow.com/b/chugach-south-anchorage-ak-5XnDJG/"
    },
    "house_13": {
        "street_address": "Kings Court - 303 E 15th Ave, Anchorage, AK",
        "city": "Anchorage",
        "state": "AK",
        "zipCode": "99501",
        "latitude": 61.20799,
        "longitude": -149.87846,
        "beds": "1/2",
        "rent_price/month": "$1,150+/$1,200+",
        "listed_date": null,
        "property_link": "https://www.zillow.com/b/kings-court-anchorage-ak-5fvfm9/"
    },
    "house_14": {
        "street_address": "Timber Ridge - 13900 Old Glenn Hwy, Eagle River, AK",
        "city": "Eagle River",
        "state": "AK",
        "zipCode": "99577",
        "latitude": 61.346497,
        "longitude": -149.55362,
        "beds": "1/2",
        "rent_price/month": "$1,325+/$1,575+",
        "listed_date": null,
        "property_link": "https://www.zillow.com/b/timber-ridge-eagle-river-ak-5XqyBN/"
    },
    "house_15": {
        "street_address": "Strawberry Lane - 2001 W 80th Ave, Anchorage, AK",
        "city": "Anchorage",
        "state": "AK",
        "zipCode": "99502",
        "latitude": 61.149555,
        "longitude": -149.91739,
        "beds": "2",
        "rent_price/month": "$1,445+",
        "listed_date": null,
        "property_link": "https://www.zillow.com/b/strawberry-lane-anchorage-ak-5YJVMb/"
    },
    "house_16": {
        "street_address": "Terrace on the Lake - 2421 Bentzen Cir, Anchorage, AK",
        "city": "Anchorage",
        "state": "AK",
        "zipCode": "99517",
        "latitude": 61.173668,
        "longitude": -149.93013,
        "beds": "0/1/2",
        "rent_price/month": "$1,140+/$1,240+/$1,515+",
        "listed_date": null,
        "property_link": "https://www.zillow.com/b/terrace-on-the-lake-anchorage-ak-5XrJdK/"
    },
    "house_17": {
        "street_address": "Apartment for rent - 3903 Iowa Dr APT 5, Anchorage, AK 99517",
        "city": "Anchorage",
        "state": "AK",
        "zipCode": "99517",
        "latitude": 61.184563,
        "longitude": -149.92857,
        "beds": 3,
        "rent_price/month": "$1600.0",
        "listed_date": "9 hours ago",
        "property_link": "https://www.zillow.com/homedetails/3903-Iowa-Dr-APT-5-Anchorage-AK-99517/2078942451_zpid/"
    },
    "house_18": {
        "street_address": "House for rent - 3491 Harrier Cir, Anchorage, AK 99504",
        "city": "Anchorage",
        "state": "AK",
        "zipCode": "99504",
        "latitude": 61.189205,
        "longitude": -149.74995,
        "beds": 2,
        "rent_price/month": "$1750.0",
        "listed_date": "1 hour ago",
        "property_link": "https://www.zillow.com/homedetails/3491-Harrier-Cir-Anchorage-AK-99504/19640_zpid/"
    },
    "house_19": {
        "street_address": "Apartment for rent - 3560 W Dimond Blvd #A9, Anchorage, AK 99502",
        "city": "Anchorage",
        "state": "AK",
        "zipCode": "99502",
        "latitude": 61.136074,
        "longitude": -149.94589,
        "beds": 2,
        "rent_price/month": "$1425.0",
        "listed_date": "14 hours ago",
        "property_link": "https://www.zillow.com/homedetails/3560-W-Dimond-Blvd-A9-Anchorage-AK-99502/2059292420_zpid/"
    },
    "house_20": {
        "street_address": "Apartment for rent - 4318 Checkmate Dr APT 19, Anchorage, AK 99508",
        "city": "Anchorage",
        "state": "AK",
        "zipCode": "99508",
        "latitude": 61.18148,
        "longitude": -149.78635,
        "beds": 3,
        "rent_price/month": "$1300.0",
        "listed_date": "14 hours ago",
        "property_link": "https://www.zillow.com/homedetails/4318-Checkmate-Dr-APT-19-Anchorage-AK-99508/2085889040_zpid/"
    },
    "house_21": {
        "street_address": "House for rent - 831 Minuteman Loop, North Pole, AK 99705",
        "city": "North Pole",
        "state": "AK",
        "zipCode": "99705",
        "latitude": 64.74557,
        "longitude": -147.3585,
        "beds": 3,
        "rent_price/month": "$2200.0",
        "listed_date": "1 day ago",
        "property_link": "https://www.zillow.com/homedetails/831-Minuteman-Loop-North-Pole-AK-99705/74500467_zpid/"
    },
    "house_22": {
        "street_address": "Townhouse for rent - 3042 Vfw St UNIT B, North Pole, AK 99705",
        "city": "North Pole",
        "state": "AK",
        "zipCode": "99705",
        "latitude": 64.73082,
        "longitude": -147.31189,
        "beds": 1,
        "rent_price/month": "$1200.0",
        "listed_date": "1 day ago",
        "property_link": "https://www.zillow.com/homedetails/3042-Vfw-St-UNIT-B-North-Pole-AK-99705/2059097620_zpid/"
    },
    "house_23": {
        "street_address": "Townhouse for rent - 8050 Pioneer Dr, Anchorage, AK 99504",
        "city": "Anchorage",
        "state": "AK",
        "zipCode": "99504",
        "latitude": 61.18444,
        "longitude": -149.73212,
        "beds": 3,
        "rent_price/month": "$1900.0",
        "listed_date": "2 days ago",
        "property_link": "https://www.zillow.com/homedetails/8050-Pioneer-Dr-Anchorage-AK-99504/130174740_zpid/"
    },
    "house_24": {
        "street_address": "Apartment for rent - 2501 Outside Blvd #3105, North Pole, AK 99705",
        "city": "North Pole",
        "state": "AK",
        "zipCode": "99705",
        "latitude": 64.75426,
        "longitude": -147.33176,
        "beds": 0,
        "rent_price/month": "$950.0",
        "listed_date": "3 hours ago",
        "property_link": "https://www.zillow.com/homedetails/2501-Outside-Blvd-3105-North-Pole-AK-99705/2059142971_zpid/"
    },
    "house_25": {
        "street_address": "House for rent - 5606 E 40th Ave UNIT A104, Anchorage, AK 99504",
        "city": "Anchorage",
        "state": "AK",
        "zipCode": "99504",
        "latitude": 61.184383,
        "longitude": -149.77686,
        "beds": 2,
        "rent_price/month": "$1500.0",
        "listed_date": "5 days ago",
        "property_link": "https://www.zillow.com/homedetails/5606-E-40th-Ave-UNIT-A104-Anchorage-AK-99504/18559_zpid/"
    },
    "house_26": {
        "street_address": "Townhouse for rent - 9331 Noblewood St APT A, Anchorage, AK 99502",
        "city": "Anchorage",
        "state": "AK",
        "zipCode": "99502",
        "latitude": 61.135944,
        "longitude": -149.93634,
        "beds": 3,
        "rent_price/month": "$2400.0",
        "listed_date": "4 hours ago",
        "property_link": "https://www.zillow.com/homedetails/9331-Noblewood-St-APT-A-Anchorage-AK-99502/2067858623_zpid/"
    },
    "house_27": {
        "street_address": "House for rent - 20044 Pilots Rd, Chugiak, AK 99567",
        "city": "Chugiak",
        "state": "AK",
        "zipCode": "99567",
        "latitude": 61.401527,
        "longitude": -149.47142,
        "beds": 1,
        "rent_price/month": "$1775.0",
        "listed_date": "2 days ago",
        "property_link": "https://www.zillow.com/homedetails/20044-Pilots-Rd-Chugiak-AK-99567/60976_zpid/"
    },
    "house_28": {
        "street_address": "Apartment for rent - 11507 Lower Sunny Cir #B, Eagle River, AK 99577",
        "city": "Eagle River",
        "state": "AK",
        "zipCode": "99577",
        "latitude": 61.32443,
        "longitude": -149.56499,
        "beds": 2,
        "rent_price/month": "$2100.0",
        "listed_date": "1 day ago",
        "property_link": "https://www.zillow.com/homedetails/11507-Lower-Sunny-Cir-B-Eagle-River-AK-99577/2089567022_zpid/"
    },
    "house_29": {
        "street_address": "Apartment for rent - 908 E 45th Ct APT 4, Anchorage, AK 99503",
        "city": "Anchorage",
        "state": "AK",
        "zipCode": "99503",
        "latitude": 61.17953,
        "longitude": -149.8651,
        "beds": 2,
        "rent_price/month": "$1350.0",
        "listed_date": "2 days ago",
        "property_link": "https://www.zillow.com/homedetails/908-E-45th-Ct-APT-4-Anchorage-AK-99503/2089922041_zpid/"
    },
    "house_30": {
        "street_address": "Apartment for rent - 8 Dailey Ave #8, Anchorage, AK 99515",
        "city": "Anchorage",
        "state": "AK",
        "zipCode": "99515",
        "latitude": 61.10995,
        "longitude": -149.87811,
        "beds": 2,
        "rent_price/month": "$2095.0",
        "listed_date": "14 days ago",
        "property_link": "https://www.zillow.com/homedetails/8-Dailey-Ave-8-Anchorage-AK-99515/2059471670_zpid/"
    },
    "house_31": {
        "street_address": "Apartment for rent - 3246 Adams Dr APT 3, Fairbanks, AK 99709",
        "city": "Fairbanks",
        "state": "AK",
        "zipCode": "99709",
        "latitude": 64.83441,
        "longitude": -147.7919,
        "beds": 2,
        "rent_price/month": "$1550.0",
        "listed_date": "4 days ago",
        "property_link": "https://www.zillow.com/homedetails/3246-Adams-Dr-APT-3-Fairbanks-AK-99709/2080920864_zpid/"
    },
    "house_32": {
        "street_address": "Apartment for rent - Second Street Apartments - 4, 604 2nd St, Fairbanks, AK 99701",
        "city": "Fairbanks",
        "state": "AK",
        "zipCode": "99701",
        "latitude": 64.84432,
        "longitude": -147.69554,
        "beds": 3,
        "rent_price/month": "$1500.0",
        "listed_date": "5 days ago",
        "property_link": "https://www.zillow.com/b/second-street-apartments-4-fairbanks-ak-5XxqfT/"
    },
    "house_33": {
        "street_address": "Beaver Lake Apartments - 1315 - 2545 Mission Rd, North Pole, AK",
        "city": "North Pole",
        "state": "AK",
        "zipCode": "99705",
        "latitude": 64.75291,
        "longitude": -147.33058,
        "beds": "1",
        "rent_price/month": "$1,100+",
        "listed_date": null,
        "property_link": "https://www.zillow.com/b/beaver-lake-apartments-1315-north-pole-ak-5dsRbX/"
    },
    "house_34": {
        "street_address": "House for rent - 6469 Village Pkwy, Anchorage, AK 99504",
        "city": "Anchorage",
        "state": "AK",
        "zipCode": "99504",
        "latitude": 61.188187,
        "longitude": -149.76088,
        "beds": 2,
        "rent_price/month": "$1900.0",
        "listed_date": "5 days ago",
        "property_link": "https://www.zillow.com/homedetails/6469-Village-Pkwy-Anchorage-AK-99504/2123625818_zpid/"
    },
    "house_35": {
        "street_address": "Apartment for rent - 3457 Old Richardson Hwy, North Pole, AK 99705",
        "city": "North Pole",
        "state": "AK",
        "zipCode": "99705",
        "latitude": 64.71272,
        "longitude": -147.16397,
        "beds": 2,
        "rent_price/month": "$1800.0",
        "listed_date": "13 days ago",
        "property_link": "https://www.zillow.com/homedetails/3457-Old-Richardson-Hwy-North-Pole-AK-99705/74485416_zpid/"
    },
    "house_36": {
        "street_address": "Townhouse for rent - 909 W 40th Ave APT 3, Anchorage, AK 99503",
        "city": "Anchorage",
        "state": "AK",
        "zipCode": "99503",
        "latitude": 61.184704,
        "longitude": -149.90123,
        "beds": 2,
        "rent_price/month": "$1700.0",
        "listed_date": "3 days ago",
        "property_link": "https://www.zillow.com/homedetails/909-W-40th-Ave-APT-3-Anchorage-AK-99503/2093812501_zpid/"
    },
    "house_37": {
        "street_address": "Apartment for rent - 7340 E 21st Ave APT A, Anchorage, AK 99504",
        "city": "Anchorage",
        "state": "AK",
        "zipCode": "99504",
        "latitude": 61.201866,
        "longitude": -149.74332,
        "beds": 2,
        "rent_price/month": "$1350.0",
        "listed_date": "25 days ago",
        "property_link": "https://www.zillow.com/homedetails/7340-E-21st-Ave-APT-A-Anchorage-AK-99504/2075352182_zpid/"
    },
    "house_38": {
        "street_address": "Townhouse for rent - 705 Oconnor Rd UNIT 3, Fairbanks, AK 99701",
        "city": "Fairbanks",
        "state": "AK",
        "zipCode": "99701",
        "latitude": 64.85622,
        "longitude": -147.7241,
        "beds": 3,
        "rent_price/month": "$1750.0",
        "listed_date": "8 days ago",
        "property_link": "https://www.zillow.com/homedetails/705-Oconnor-Rd-UNIT-3-Fairbanks-AK-99701/2060322241_zpid/"
    },
    "house_39": {
        "street_address": "The Phoenix Apartments - 9 - 2116 Fairbanks St, Anchorage, AK",
        "city": "Anchorage",
        "state": "AK",
        "zipCode": "99503",
        "latitude": 61.2013,
        "longitude": -149.87344,
        "beds": "1/2",
        "rent_price/month": "$1,250+/$1,400+",
        "listed_date": null,
        "property_link": "https://www.zillow.com/b/the-phoenix-apartments-8-anchorage-ak-5Y4xrS/"
    },
    "house_40": {
        "street_address": "Townhouse for rent - 2957 Wind Chase Ct, Anchorage, AK 99507",
        "city": "Anchorage",
        "state": "AK",
        "zipCode": "99507",
        "latitude": 61.167313,
        "longitude": -149.82742,
        "beds": 3,
        "rent_price/month": "$2200.0",
        "listed_date": "9 days ago",
        "property_link": "https://www.zillow.com/homedetails/2957-Wind-Chase-Ct-Anchorage-AK-99507/2110347376_zpid/"
    },
    "house_41": {
        "street_address": "Townhouse for rent - 1320 Wake Forest Way APT 1, Fairbanks, AK 99709",
        "city": "Fairbanks",
        "state": "AK",
        "zipCode": "99709",
        "latitude": 64.83668,
        "longitude": -147.86485,
        "beds": 3,
        "rent_price/month": "$2000.0",
        "listed_date": "3 days ago",
        "property_link": "https://www.zillow.com/homedetails/1320-Wake-Forest-Way-APT-1-Fairbanks-AK-99709/2091166048_zpid/"
    },
    "house_42": {
        "street_address": "Apartment for rent - 4620 Reka Dr APT B12, Anchorage, AK 99508",
        "city": "Anchorage",
        "state": "AK",
        "zipCode": "99508",
        "latitude": 61.20415,
        "longitude": -149.79498,
        "beds": 1,
        "rent_price/month": "$1250.0",
        "listed_date": "24 days ago",
        "property_link": "https://www.zillow.com/homedetails/4620-Reka-Dr-APT-B12-Anchorage-AK-99508/10214_zpid/"
    },
    "house_43": {
        "street_address": "Apartment for rent - 401 East 8th Avenue - 4, 401 E 8th Ave, North Pole, AK 99705",
        "city": "North Pole",
        "state": "AK",
        "zipCode": "99705",
        "latitude": 64.748405,
        "longitude": -147.34064,
        "beds": 2,
        "rent_price/month": "$1650.0",
        "listed_date": "18 days ago",
        "property_link": "https://www.zillow.com/b/401-east-8th-avenue-4-north-pole-ak-B8c6Tm/"
    },
    "house_44": {
        "street_address": "Apartment for rent - 5220 E 24th Ave #D, Anchorage, AK 99508",
        "city": "Anchorage",
        "state": "AK",
        "zipCode": "99508",
        "latitude": 61.198685,
        "longitude": -149.78358,
        "beds": 2,
        "rent_price/month": "$1200.0",
        "listed_date": "17 days ago",
        "property_link": "https://www.zillow.com/homedetails/5220-E-24th-Ave-D-Anchorage-AK-99508/2059520910_zpid/"
    },
    "house_45": {
        "street_address": "House for rent - 4530 Wright St APT 2, Anchorage, AK 99507",
        "city": "Anchorage",
        "state": "AK",
        "zipCode": "99507",
        "latitude": 61.17933,
        "longitude": -149.82755,
        "beds": 2,
        "rent_price/month": "$1600.0",
        "listed_date": "5 days ago",
        "property_link": "https://www.zillow.com/homedetails/4530-Wright-St-APT-2-Anchorage-AK-99507/21498_zpid/"
    },
    "house_46": {
        "street_address": "For Rent - 222 W 13th Ave, Anchorage, AK",
        "city": "Anchorage",
        "state": "AK",
        "zipCode": "99501",
        "latitude": 61.20941,
        "longitude": -149.88622,
        "beds": "2",
        "rent_price/month": "$1,995+",
        "listed_date": "3D Tour",
        "property_link": "https://www.zillow.com/b/222-w-13th-ave-anchorage-ak-5XkJY8/"
    },
    "house_47": {
        "street_address": "Apartment for rent - 1131 Redoubt Ave #1, Kenai, AK 99611",
        "city": "Kenai",
        "state": "AK",
        "zipCode": "99611",
        "latitude": 60.57425,
        "longitude": -151.27695,
        "beds": 3,
        "rent_price/month": "$1650.0",
        "listed_date": "7 days ago",
        "property_link": "https://www.zillow.com/homedetails/1131-Redoubt-Ave-1-Kenai-AK-99611/2059246513_zpid/"
    },
    "house_48": {
        "street_address": "House for rent - 105 Cary Ave, North Pole, AK 99705",
        "city": "North Pole",
        "state": "AK",
        "zipCode": "99705",
        "latitude": 64.75553,
        "longitude": -147.35141,
        "beds": 4,
        "rent_price/month": "$2700.0",
        "listed_date": "3D Tour",
        "property_link": "https://www.zillow.com/homedetails/105-Cary-Ave-North-Pole-AK-99705/74494618_zpid/"
    },
    "house_49": {
        "street_address": "For Rent - 8161B Williwa Ave, Anchorage, AK",
        "city": "Anchorage",
        "state": "AK",
        "zipCode": "99504",
        "latitude": 61.189304,
        "longitude": -149.72763,
        "beds": "3",
        "rent_price/month": "$2,150+",
        "listed_date": "30 days ago",
        "property_link": "https://www.zillow.com/b/Anchorage-AK/61.189304,-149.72763_ll/"
    },
    "house_50": {
        "street_address": "House for rent - 7330 White Hawk Dr, Anchorage, AK 99507",
        "city": "Anchorage",
        "state": "AK",
        "zipCode": "99507",
        "latitude": 61.154434,
        "longitude": -149.80826,
        "beds": 3,
        "rent_price/month": "$2750.0",
        "listed_date": "11 days ago",
        "property_link": "https://www.zillow.com/homedetails/7330-White-Hawk-Dr-Anchorage-AK-99507/39985_zpid/"
    },
    "house_51": {
        "street_address": "3523 Hurst Rd - B - 3523 Hurst Rd, North Pole, AK",
        "city": "North Pole",
        "state": "AK",
        "zipCode": "99705",
        "latitude": 64.76199,
        "longitude": -147.28482,
        "beds": "0",
        "rent_price/month": "$1,000+",
        "listed_date": null,
        "property_link": "https://www.zillow.com/b/3523-hurst-rd-b-north-pole-ak-9PFd3P/"
    },
    "house_52": {
        "street_address": "House for rent - 8620 W Parks Hwy #10, Wasilla, AK 99623",
        "city": "Wasilla",
        "state": "AK",
        "zipCode": "99623",
        "latitude": 61.571014,
        "longitude": -149.66795,
        "beds": 1,
        "rent_price/month": "$1100.0",
        "listed_date": "14 days ago",
        "property_link": "https://www.zillow.com/homedetails/8620-W-Parks-Hwy-10-Wasilla-AK-99623/2075208881_zpid/"
    },
    "house_53": {
        "street_address": "Apartment for rent - 1004 Ingra St APT 4, Anchorage, AK 99501",
        "city": "Anchorage",
        "state": "AK",
        "zipCode": "99501",
        "latitude": 61.21197,
        "longitude": -149.86713,
        "beds": 2,
        "rent_price/month": "$1125.0",
        "listed_date": "15 days ago",
        "property_link": "https://www.zillow.com/homedetails/1004-Ingra-St-APT-4-Anchorage-AK-99501/2093537495_zpid/"
    },
    "house_54": {
        "street_address": "Apartment for rent - Mill Bay Townhomes, 1223 Mill Bay Rd, Kodiak, AK 99615",
        "city": "Kodiak",
        "state": "AK",
        "zipCode": "99615",
        "latitude": 57.796906,
        "longitude": -152.39203,
        "beds": 2,
        "rent_price/month": "$900.0",
        "listed_date": "28 days ago",
        "property_link": "https://www.zillow.com/b/mill-bay-townhomes-kodiak-ak-9PFJSg/"
    },
    "house_55": {
        "street_address": "Apartment for rent - 1 bed, $1,125, 2620 E 42nd Ave APT 5, Anchorage, AK 99508",
        "city": "Anchorage",
        "state": "AK",
        "zipCode": "99508",
        "latitude": 61.18235,
        "longitude": -149.8317,
        "beds": 1,
        "rent_price/month": "$1125.0",
        "listed_date": "41 days ago",
        "property_link": "https://www.zillow.com/b/1-bed,-%241,125-anchorage-ak-5Y54mM/"
    },
    "house_56": {
        "street_address": "House for rent - 1771 Dallas Dr, North Pole, AK 99705",
        "city": "North Pole",
        "state": "AK",
        "zipCode": "99705",
        "latitude": 64.761116,
        "longitude": -147.33011,
        "beds": 3,
        "rent_price/month": "$2050.0",
        "listed_date": "35 days ago",
        "property_link": "https://www.zillow.com/homedetails/1771-Dallas-Dr-North-Pole-AK-99705/2084995723_zpid/"
    },
    "house_57": {
        "street_address": "Townhouse for rent - 1576 E St, Anchorage, AK 99501",
        "city": "Anchorage",
        "state": "AK",
        "zipCode": "99501",
        "latitude": 61.206207,
        "longitude": -149.892,
        "beds": 3,
        "rent_price/month": "$2150.0",
        "listed_date": "8 days ago",
        "property_link": "https://www.zillow.com/homedetails/1576-E-St-Anchorage-AK-99501/3834_zpid/"
    },
    "house_58": {
        "street_address": "Apartment for rent - 2 bed, 900 sqft, $1,495, 825 N Klevin St APT 3, Anchorage, AK 99508",
        "city": "Anchorage",
        "state": "AK",
        "zipCode": "99508",
        "latitude": 61.23094,
        "longitude": -149.80447,
        "beds": 2,
        "rent_price/month": "$1495.0",
        "listed_date": "35 days ago",
        "property_link": "https://www.zillow.com/b/2-bed,-900-sqft,-%241,495-anchorage-ak-5Xqt2t/"
    },
    "house_59": {
        "street_address": "House for rent - 123 Leibrock Cir, Soldotna, AK 99669",
        "city": "Soldotna",
        "state": "AK",
        "zipCode": "99669",
        "latitude": 60.488655,
        "longitude": -151.07654,
        "beds": 3,
        "rent_price/month": "$2400.0",
        "listed_date": "10 days ago",
        "property_link": "https://www.zillow.com/homedetails/123-Leibrock-Cir-Soldotna-AK-99669/84407711_zpid/"
    },
    "house_60": {
        "street_address": "House for rent - 3645 Knik Ave, Anchorage, AK 99517",
        "city": "Anchorage",
        "state": "AK",
        "zipCode": "99517",
        "latitude": 61.196903,
        "longitude": -149.95392,
        "beds": 3,
        "rent_price/month": "$2700.0",
        "listed_date": "21 days ago",
        "property_link": "https://www.zillow.com/homedetails/3645-Knik-Ave-Anchorage-AK-99517/2279_zpid/"
    },
    "house_61": {
        "street_address": "Apartment for rent - Turnagain Place Apartments, 2451 W 27th Ave, Anchorage, AK 99517",
        "city": "Anchorage",
        "state": "AK",
        "zipCode": "99517",
        "latitude": 61.19634,
        "longitude": -149.93173,
        "beds": 1,
        "rent_price/month": "$748.0",
        "listed_date": "28 days ago",
        "property_link": "https://www.zillow.com/b/turnagain-place-apartments-anchorage-ak-9VmFfX/"
    },
    "house_62": {
        "street_address": "Apartment for rent - 2 bed, 700 sqft, $1,295, 2480 Sentry Dr APT 5, Anchorage, AK 99507",
        "city": "Anchorage",
        "state": "AK",
        "zipCode": "99507",
        "latitude": 61.13496,
        "longitude": -149.83484,
        "beds": 2,
        "rent_price/month": "$1295.0",
        "listed_date": "32 days ago",
        "property_link": "https://www.zillow.com/b/2480-sentry-drive-anchorage-ak-5ZYbrW/"
    },
    "house_63": {
        "street_address": "Apartment for rent - 205 E 12th Ave #1, Anchorage, AK 99501",
        "city": "Anchorage",
        "state": "AK",
        "zipCode": "99501",
        "latitude": 61.21094,
        "longitude": -149.88086,
        "beds": 2,
        "rent_price/month": "$1750.0",
        "listed_date": "34 days ago",
        "property_link": "https://www.zillow.com/homedetails/205-E-12th-Ave-1-Anchorage-AK-99501/2060977619_zpid/"
    },
    "house_64": {
        "street_address": "House for rent - 478 Steamboat Landing Rd, North Pole, AK 99705",
        "city": "North Pole",
        "state": "AK",
        "zipCode": "99705",
        "latitude": 64.84623,
        "longitude": -147.33163,
        "beds": 2,
        "rent_price/month": "$1900.0",
        "listed_date": "29 days ago",
        "property_link": "https://www.zillow.com/homedetails/478-Steamboat-Landing-Rd-North-Pole-AK-99705/90663288_zpid/"
    },
    "house_65": {
        "street_address": "House for rent - 3517 Vintage Cir, Anchorage, AK 99517",
        "city": "Anchorage",
        "state": "AK",
        "zipCode": "99517",
        "latitude": 61.18845,
        "longitude": -149.93845,
        "beds": 4,
        "rent_price/month": "$3500.0",
        "listed_date": "21 days ago",
        "property_link": "https://www.zillow.com/homedetails/3517-Vintage-Cir-Anchorage-AK-99517/25009_zpid/"
    },
    "house_66": {
        "street_address": "545 E. 11th Ave. - 545 E 11th Ave, Anchorage, AK",
        "city": "Anchorage",
        "state": "AK",
        "zipCode": "99501",
        "latitude": 61.21193,
        "longitude": -149.87343,
        "beds": "1/3",
        "rent_price/month": "$1,295+/$1,895+",
        "listed_date": null,
        "property_link": "https://www.zillow.com/b/545-e.-11th-ave.-anchorage-ak-9Vm8m4/"
    },
    "house_67": {
        "street_address": "For Rent - 3725 E 43rd Pl, Anchorage, AK",
        "city": "Anchorage",
        "state": "AK",
        "zipCode": "99508",
        "latitude": 61.182205,
        "longitude": -149.81166,
        "beds": "1",
        "rent_price/month": "$1,830+",
        "listed_date": "43 days ago",
        "property_link": "https://www.zillow.com/b/3725-e-43rd-pl-anchorage-ak-9VmDWw/"
    },
    "house_68": {
        "street_address": "House for rent - 35722 Sterling Hwy, Sterling, AK 99672",
        "city": "Sterling",
        "state": "AK",
        "zipCode": "99672",
        "latitude": 60.538174,
        "longitude": -150.81541,
        "beds": 5,
        "rent_price/month": "$2500.0",
        "listed_date": "32 days ago",
        "property_link": "https://www.zillow.com/homedetails/35722-Sterling-Hwy-Sterling-AK-99672/223315673_zpid/"
    },
    "house_69": {
        "street_address": "For Rent - 505 W 2nd Ave, Anchorage, AK",
        "city": "Anchorage",
        "state": "AK",
        "zipCode": "99501",
        "latitude": 61.220818,
        "longitude": -149.8918,
        "beds": "1",
        "rent_price/month": "$1,600+",
        "listed_date": "43 days ago",
        "property_link": "https://www.zillow.com/b/505-w-2nd-ave-anchorage-ak-5Y2YRs/"
    },
    "house_70": {
        "street_address": "Townhouse for rent - 1357 Northbluff Dr, Anchorage, AK 99501",
        "city": "Anchorage",
        "state": "AK",
        "zipCode": "99501",
        "latitude": 61.228775,
        "longitude": -149.85672,
        "beds": 3,
        "rent_price/month": "$2500.0",
        "listed_date": "21 days ago",
        "property_link": "https://www.zillow.com/homedetails/1357-Northbluff-Dr-Anchorage-AK-99501/112345074_zpid/"
    },
    "house_71": {
        "street_address": "House for rent - 22324 Shadowy Spruce Dr, Chugiak, AK 99567",
        "city": "Chugiak",
        "state": "AK",
        "zipCode": "99567",
        "latitude": 61.422203,
        "longitude": -149.44888,
        "beds": 4,
        "rent_price/month": "$3000.0",
        "listed_date": "3D Tour",
        "property_link": "https://www.zillow.com/homedetails/22324-Shadowy-Spruce-Dr-Chugiak-AK-99567/62582_zpid/"
    },
    "house_72": {
        "street_address": "Apartment for rent - 1587 Primrose St #A, Anchorage, AK 99508",
        "city": "Anchorage",
        "state": "AK",
        "zipCode": "99508",
        "latitude": 61.206264,
        "longitude": -149.8097,
        "beds": 3,
        "rent_price/month": "$1875.0",
        "listed_date": "18 days ago",
        "property_link": "https://www.zillow.com/homedetails/1587-Primrose-St-A-Anchorage-AK-99508/2060395211_zpid/"
    },
    "house_73": {
        "street_address": "House for rent - 821 P St, Anchorage, AK 99501",
        "city": "Anchorage",
        "state": "AK",
        "zipCode": "99501",
        "latitude": 61.214413,
        "longitude": -149.91165,
        "beds": 1,
        "rent_price/month": "$1395.0",
        "listed_date": "32 days ago",
        "property_link": "https://www.zillow.com/homedetails/821-P-St-Anchorage-AK-99501/2130028965_zpid/"
    },
    "house_74": {
        "street_address": "House for rent - 6703 Snow Goose Cir, Anchorage, AK 99502",
        "city": "Anchorage",
        "state": "AK",
        "zipCode": "99502",
        "latitude": 61.1603,
        "longitude": -149.96361,
        "beds": 3,
        "rent_price/month": "$2995.0",
        "listed_date": "18 days ago",
        "property_link": "https://www.zillow.com/homedetails/6703-Snow-Goose-Cir-Anchorage-AK-99502/82589086_zpid/"
    },
    "house_75": {
        "street_address": "Apartment for rent - 771 Rifle Rd APT 7, Fairbanks, AK 99712",
        "city": "Fairbanks",
        "state": "AK",
        "zipCode": "99712",
        "latitude": 64.89313,
        "longitude": -147.46587,
        "beds": 2,
        "rent_price/month": "$1600.0",
        "listed_date": "1 day ago",
        "property_link": "https://www.zillow.com/homedetails/771-Rifle-Rd-APT-7-Fairbanks-AK-99712/2083135257_zpid/"
    },
    "house_76": {
        "street_address": "Apartment for rent - 2 bed, 1.5 bath, 824 sqft, $1,500, 3804 Indiana St, Anchorage, AK 99503",
        "city": "Anchorage",
        "state": "AK",
        "zipCode": "99503",
        "latitude": 61.18557,
        "longitude": -149.90031,
        "beds": 2,
        "rent_price/month": "$1500.0",
        "listed_date": "20 days ago",
        "property_link": "https://www.zillow.com/homedetails/3804-Indiana-St-Anchorage-AK-99503/82587496_zpid/"
    },
    "house_77": {
        "street_address": "Apartment for rent - 3125 E Beech Way #6, Wasilla, AK 99654",
        "city": "Wasilla",
        "state": "AK",
        "zipCode": "99654",
        "latitude": 61.580906,
        "longitude": -149.37202,
        "beds": 1,
        "rent_price/month": "$900.0",
        "listed_date": "50 days ago",
        "property_link": "https://www.zillow.com/homedetails/3125-E-Beech-Way-6-Wasilla-AK-99654/2060266086_zpid/"
    },
    "house_78": {
        "street_address": "House for rent - 6967 Penny Rose Cir, Anchorage, AK 99502",
        "city": "Anchorage",
        "state": "AK",
        "zipCode": "99502",
        "latitude": 61.14795,
        "longitude": -150.00862,
        "beds": 5,
        "rent_price/month": "$5000.0",
        "listed_date": "8 days ago",
        "property_link": "https://www.zillow.com/homedetails/6967-Penny-Rose-Cir-Anchorage-AK-99502/82586843_zpid/"
    },
    "house_79": {
        "street_address": "Nest Apartments-JC - 400 Cushman St, Fairbanks, AK",
        "city": "Fairbanks",
        "state": "AK",
        "zipCode": "99701",
        "latitude": 64.84211,
        "longitude": -147.72086,
        "beds": "0",
        "rent_price/month": "$1,000+",
        "listed_date": "3D Tour",
        "property_link": "https://www.zillow.com/b/nest-apartments-jc-fairbanks-ak-9PFY2k/"
    },
    "house_80": {
        "street_address": "Apartment for rent - 836 M St APT 206, Anchorage, AK 99501",
        "city": "Anchorage",
        "state": "AK",
        "zipCode": "99501",
        "latitude": 61.21425,
        "longitude": -149.90605,
        "beds": 1,
        "rent_price/month": "$2000.0",
        "listed_date": "38 days ago",
        "property_link": "https://www.zillow.com/homedetails/836-M-St-APT-206-Anchorage-AK-99501/191_zpid/"
    },
    "house_81": {
        "street_address": "House for rent - 34900 Poppy Wood St, Soldotna, AK 99669",
        "city": "Soldotna",
        "state": "AK",
        "zipCode": "99669",
        "latitude": 60.486687,
        "longitude": -151.1828,
        "beds": 3,
        "rent_price/month": "$2350.0",
        "listed_date": "17 days ago",
        "property_link": "https://www.zillow.com/homedetails/34900-Poppy-Wood-St-Soldotna-AK-99669/81603685_zpid/"
    },
    "house_82": {
        "street_address": "Apartment for rent - 746 E 73rd Ave #4, Anchorage, AK 99518",
        "city": "Anchorage",
        "state": "AK",
        "zipCode": "99518",
        "latitude": 61.154396,
        "longitude": -149.86806,
        "beds": 2,
        "rent_price/month": "$1500.0",
        "listed_date": "6 days ago",
        "property_link": "https://www.zillow.com/homedetails/746-E-73rd-Ave-4-Anchorage-AK-99518/2060795819_zpid/"
    },
    "house_83": {
        "street_address": "Apartment for rent - 833 W 19th Ave, Anchorage, AK 99503",
        "city": "Anchorage",
        "state": "AK",
        "zipCode": "99503",
        "latitude": 61.203583,
        "longitude": -149.89842,
        "beds": 2,
        "rent_price/month": "$1795.0",
        "listed_date": "116 days ago",
        "property_link": "https://www.zillow.com/homedetails/833-W-19th-Ave-Anchorage-AK-99503/2100531133_zpid/"
    },
    "house_84": {
        "street_address": "For Rent - 2107 Jefferson Ave, Anchorage, AK",
        "city": "Anchorage",
        "state": "AK",
        "zipCode": "99517",
        "latitude": 61.182777,
        "longitude": -149.92047,
        "beds": "1/2",
        "rent_price/month": "$1,200+/$1,350+",
        "listed_date": "116 days ago",
        "property_link": "https://www.zillow.com/b/2107-jefferson-ave-anchorage-ak-5fvgJz/"
    },
    "house_85": {
        "street_address": "Apartment for rent - 2 bed, $1,600, 709 Oconnor Rd #3, Fairbanks, AK 99701",
        "city": "Fairbanks",
        "state": "AK",
        "zipCode": "99701",
        "latitude": 64.856346,
        "longitude": -147.7245,
        "beds": 2,
        "rent_price/month": "$1600.0",
        "listed_date": "60 days ago",
        "property_link": "https://www.zillow.com/b/2-bed,-%241,600-fairbanks-ak-9PFYbY/"
    },
    "house_86": {
        "street_address": "Apartment for rent - 3483 Rewak Dr #S, Fairbanks, AK 99709",
        "city": "Fairbanks",
        "state": "AK",
        "zipCode": "99709",
        "latitude": 64.834816,
        "longitude": -147.80675,
        "beds": 0,
        "rent_price/month": "$1395.0",
        "listed_date": "3D Tour",
        "property_link": "https://www.zillow.com/homedetails/3483-Rewak-Dr-S-Fairbanks-AK-99709/2066442419_zpid/"
    },
    "house_87": {
        "street_address": "Apartment for rent - 7031 Weimer Rd, 7031 Weimer Rd, Anchorage, AK 99502",
        "city": "Anchorage",
        "state": "AK",
        "zipCode": "99502",
        "latitude": 61.157127,
        "longitude": -149.9486,
        "beds": 1,
        "rent_price/month": "$1300.0",
        "listed_date": "36 days ago",
        "property_link": "https://www.zillow.com/b/7031-weimer-rd-anchorage-ak-9PDTSh/"
    },
    "house_88": {
        "street_address": "3579 Old Richardson Hwy - 3579 Old Richardson Hwy, North Pole, AK",
        "city": "North Pole",
        "state": "AK",
        "zipCode": "99705",
        "latitude": 64.70698,
        "longitude": -147.14539,
        "beds": "1",
        "rent_price/month": "$1,200+",
        "listed_date": null,
        "property_link": "https://www.zillow.com/b/3579-old-richardson-hwy-north-pole-ak-9PFd5w/"
    },
    "house_89": {
        "street_address": "House for rent - 20768 Mountain Vista Dr, Eagle River, AK 99577",
        "city": "Eagle River",
        "state": "AK",
        "zipCode": "99577",
        "latitude": 61.3018,
        "longitude": -149.49501,
        "beds": 3,
        "rent_price/month": "$2950.0",
        "listed_date": "14 hours ago",
        "property_link": "https://www.zillow.com/homedetails/20768-Mountain-Vista-Dr-Eagle-River-AK-99577/88892800_zpid/"
    },
    "house_90": {
        "street_address": "Apartment for rent - 6456 S Wassim Cir, Wasilla, AK 99623",
        "city": "Wasilla",
        "state": "AK",
        "zipCode": "99623",
        "latitude": 61.506786,
        "longitude": -149.6471,
        "beds": 2,
        "rent_price/month": "$1400.0",
        "listed_date": "17 hours ago",
        "property_link": "https://www.zillow.com/homedetails/6456-S-Wassim-Cir-Wasilla-AK-99623/2071115420_zpid/"
    },
    "house_91": {
        "street_address": "Apartment for rent - 801 N Bliss St #1, Anchorage, AK 99508",
        "city": "Anchorage",
        "state": "AK",
        "zipCode": "99508",
        "latitude": 61.230553,
        "longitude": -149.79477,
        "beds": 2,
        "rent_price/month": "$1500.0",
        "listed_date": "22 hours ago",
        "property_link": "https://www.zillow.com/homedetails/801-N-Bliss-St-1-Anchorage-AK-99508/2059092310_zpid/"
    },
    "house_92": {
        "street_address": "House for rent - 121 Telemark Way, Girdwood, AK 99587",
        "city": "Girdwood",
        "state": "AK",
        "zipCode": "99587",
        "latitude": 60.951084,
        "longitude": -149.1654,
        "beds": 1,
        "rent_price/month": "$1850.0",
        "listed_date": "22 hours ago",
        "property_link": "https://www.zillow.com/homedetails/121-Telemark-Way-Girdwood-AK-99587/63992_zpid/"
    },
    "house_93": {
        "street_address": "Apartment for rent - 1441 W 26th Ave UNIT B2, Anchorage, AK 99503",
        "city": "Anchorage",
        "state": "AK",
        "zipCode": "99503",
        "latitude": 61.197586,
        "longitude": -149.91158,
        "beds": 2,
        "rent_price/month": "$2000.0",
        "listed_date": "11 hours ago",
        "property_link": "https://www.zillow.com/homedetails/1441-W-26th-Ave-UNIT-B2-Anchorage-AK-99503/59762489_zpid/"
    },
    "house_94": {
        "street_address": "Apartment for rent - 3305 Cope St #A, Anchorage, AK 99503",
        "city": "Anchorage",
        "state": "AK",
        "zipCode": "99503",
        "latitude": 61.19023,
        "longitude": -149.90213,
        "beds": 2,
        "rent_price/month": "$2500.0",
        "listed_date": "1 day ago",
        "property_link": "https://www.zillow.com/homedetails/3305-Cope-St-A-Anchorage-AK-99503/2066988553_zpid/"
    },
    "house_95": {
        "street_address": "Apartment for rent - (undisclosed Address), North Pole, AK 99705",
        "city": "North Pole",
        "state": "AK",
        "zipCode": "99705",
        "latitude": null,
        "longitude": null,
        "beds": 1,
        "rent_price/month": "$1400.0",
        "listed_date": "1 day ago",
        "property_link": "https://www.zillow.com/homedetails/North-Pole-AK-99705/2059102910_zpid/"
    },
    "house_96": {
        "street_address": "Apartment for rent - (undisclosed Address), Anchorage, AK 99508",
        "city": "Anchorage",
        "state": "AK",
        "zipCode": "99508",
        "latitude": null,
        "longitude": null,
        "beds": 2,
        "rent_price/month": "$1850.0",
        "listed_date": "18 hours ago",
        "property_link": "https://www.zillow.com/homedetails/Anchorage-AK-99508/2065736462_zpid/"
    },
    "house_97": {
        "street_address": "Apartment for rent - 9364 Morningside Loop, Anchorage, AK 99515",
        "city": "Anchorage",
        "state": "AK",
        "zipCode": "99515",
        "latitude": 61.13351,
        "longitude": -149.85846,
        "beds": 2,
        "rent_price/month": "$1800.0",
        "listed_date": "2 days ago",
        "property_link": "https://www.zillow.com/homedetails/9364-Morningside-Loop-Anchorage-AK-99515/2077783517_zpid/"
    },
    "house_98": {
        "street_address": "House for rent - 12432 Crested Butte Dr, Eagle River, AK 99577",
        "city": "Eagle River",
        "state": "AK",
        "zipCode": "99577",
        "latitude": 61.33281,
        "longitude": -149.58008,
        "beds": 3,
        "rent_price/month": "$2600.0",
        "listed_date": "2 days ago",
        "property_link": "https://www.zillow.com/homedetails/12432-Crested-Butte-Dr-Eagle-River-AK-99577/55397_zpid/"
    },
    "house_99": {
        "street_address": "Apartment for rent - 3954 Bartlett St APT A, Homer, AK 99603",
        "city": "Homer",
        "state": "AK",
        "zipCode": "99603",
        "latitude": 59.64739,
        "longitude": -151.54906,
        "beds": 2,
        "rent_price/month": "$1550.0",
        "listed_date": "4 days ago",
        "property_link": "https://www.zillow.com/homedetails/3954-Bartlett-St-APT-A-Homer-AK-99603/2062275737_zpid/"
    },
    "house_100": {
        "street_address": "Apartment for rent - 5304 Cope St #4, Anchorage, AK 99518",
        "city": "Anchorage",
        "state": "AK",
        "zipCode": "99518",
        "latitude": 61.17203,
        "longitude": -149.90274,
        "beds": 2,
        "rent_price/month": "$2500.0",
        "listed_date": "5 days ago",
        "property_link": "https://www.zillow.com/homedetails/5304-Cope-St-4-Anchorage-AK-99518/2067767917_zpid/"
    },
    "house_101": {
        "street_address": "Apartment for rent - 112 Alex Hatley Dr #A, Bethel, AK 99559",
        "city": "Bethel",
        "state": "AK",
        "zipCode": "99559",
        "latitude": 60.78718,
        "longitude": -161.81139,
        "beds": 0,
        "rent_price/month": "$1327.0",
        "listed_date": "5 days ago",
        "property_link": "https://www.zillow.com/homedetails/112-Alex-Hatley-Dr-A-Bethel-AK-99559/2080561879_zpid/"
    },
    "house_102": {
        "street_address": "Apartment for rent - 1715 Roberts Rd #2, Fairbanks, AK 99709",
        "city": "Fairbanks",
        "state": "AK",
        "zipCode": "99709",
        "latitude": 64.83315,
        "longitude": -147.81892,
        "beds": 3,
        "rent_price/month": "$2000.0",
        "listed_date": "6 days ago",
        "property_link": "https://www.zillow.com/homedetails/1715-Roberts-Rd-2-Fairbanks-AK-99709/2059166376_zpid/"
    },
    "house_103": {
        "street_address": "Apartment for rent - 8640 E 10th Ave APT A, Anchorage, AK 99504",
        "city": "Anchorage",
        "state": "AK",
        "zipCode": "99504",
        "latitude": 61.213085,
        "longitude": -149.71875,
        "beds": 2,
        "rent_price/month": "$1350.0",
        "listed_date": "2 days ago",
        "property_link": "https://www.zillow.com/homedetails/8640-E-10th-Ave-APT-A-Anchorage-AK-99504/2087475287_zpid/"
    },
    "house_104": {
        "street_address": "Apartment for rent - 892 Agnes Ln #A, North Pole, AK 99705",
        "city": "North Pole",
        "state": "AK",
        "zipCode": "99705",
        "latitude": 64.827675,
        "longitude": -147.38824,
        "beds": 2,
        "rent_price/month": "$1375.0",
        "listed_date": "8 days ago",
        "property_link": "https://www.zillow.com/homedetails/892-Agnes-Ln-A-North-Pole-AK-99705/2076645338_zpid/"
    },
    "house_105": {
        "street_address": "Apartment for rent - (undisclosed Address), North Pole, AK 99705",
        "city": "North Pole",
        "state": "AK",
        "zipCode": "99705",
        "latitude": null,
        "longitude": null,
        "beds": 2,
        "rent_price/month": "$1525.0",
        "listed_date": "7 days ago",
        "property_link": "https://www.zillow.com/homedetails/North-Pole-AK-99705/251178503_zpid/"
    },
    "house_106": {
        "street_address": "Townhouse for rent - 1336 W 23rd Ave UNIT 210, Anchorage, AK 99503",
        "city": "Anchorage",
        "state": "AK",
        "zipCode": "99503",
        "latitude": 61.1991,
        "longitude": -149.90857,
        "beds": 0,
        "rent_price/month": "$1145.0",
        "listed_date": "53 days ago",
        "property_link": "https://www.zillow.com/homedetails/1336-W-23rd-Ave-UNIT-210-Anchorage-AK-99503/2059554488_zpid/"
    },
    "house_107": {
        "street_address": "For Rent - 1300 W 7th Ave, Anchorage, AK",
        "city": "Anchorage",
        "state": "AK",
        "zipCode": "99501",
        "latitude": 61.21545,
        "longitude": -149.90778,
        "beds": "2",
        "rent_price/month": "$2,800+",
        "listed_date": "13 days ago",
        "property_link": "https://www.zillow.com/b/west-bluff-condominiums-anchorage-ak-5Xnzyf/"
    },
    "house_108": {
        "street_address": "Apartment for rent - 2900 Borland Dr #B, Anchorage, AK 99517",
        "city": "Anchorage",
        "state": "AK",
        "zipCode": "99517",
        "latitude": 61.182888,
        "longitude": -149.93756,
        "beds": 1,
        "rent_price/month": "$1300.0",
        "listed_date": "3 days ago",
        "property_link": "https://www.zillow.com/homedetails/2900-Borland-Dr-B-Anchorage-AK-99517/2061650873_zpid/"
    },
    "house_109": {
        "street_address": "Apartment for rent - 3320 Max Cir APT 2, Anchorage, AK 99507",
        "city": "Anchorage",
        "state": "AK",
        "zipCode": "99507",
        "latitude": 61.17748,
        "longitude": -149.81786,
        "beds": 2,
        "rent_price/month": "$1625.0",
        "listed_date": "6 days ago",
        "property_link": "https://www.zillow.com/homedetails/3320-Max-Cir-APT-2-Anchorage-AK-99507/2094237955_zpid/"
    },
    "house_110": {
        "street_address": "Apartment for rent - 8641 Brookway Cir #2, Anchorage, AK 99504",
        "city": "Anchorage",
        "state": "AK",
        "zipCode": "99504",
        "latitude": 61.19261,
        "longitude": -149.7194,
        "beds": 1,
        "rent_price/month": "$1475.0",
        "listed_date": "16 days ago",
        "property_link": "https://www.zillow.com/homedetails/8641-Brookway-Cir-2-Anchorage-AK-99504/2079712949_zpid/"
    },
    "house_111": {
        "street_address": "For Rent - 800 15th Ave, Fairbanks, AK",
        "city": "Fairbanks",
        "state": "AK",
        "zipCode": "99701",
        "latitude": 64.83435,
        "longitude": -147.7231,
        "beds": "2",
        "rent_price/month": "$1,500+",
        "listed_date": "22 days ago",
        "property_link": "https://www.zillow.com/b/Fairbanks-AK/64.83435,-147.7231_ll/"
    },
    "house_112": {
        "street_address": "For Rent - 524 E 11th Ave, Anchorage, AK",
        "city": "Anchorage",
        "state": "AK",
        "zipCode": "99501",
        "latitude": 61.21138,
        "longitude": -149.87422,
        "beds": "0/1",
        "rent_price/month": "$995+/$1,025+",
        "listed_date": "12 days ago",
        "property_link": "https://www.zillow.com/b/524-e-11th-ave-anchorage-ak-5XnLtV/"
    },
    "house_113": {
        "street_address": "Apartment for rent - 3483 Rewak Dr #3, Fairbanks, AK 99709",
        "city": "Fairbanks",
        "state": "AK",
        "zipCode": "99709",
        "latitude": 64.834816,
        "longitude": -147.80672,
        "beds": 2,
        "rent_price/month": "$1895.0",
        "listed_date": "4 days ago",
        "property_link": "https://www.zillow.com/homedetails/3483-Rewak-Dr-3-Fairbanks-AK-99709/2101308141_zpid/"
    },
    "house_114": {
        "street_address": "Apartment for rent - 8020 Huckleberry St #1, Anchorage, AK 99502",
        "city": "Anchorage",
        "state": "AK",
        "zipCode": "99502",
        "latitude": 61.147755,
        "longitude": -149.94855,
        "beds": 3,
        "rent_price/month": "$2000.0",
        "listed_date": "6 days ago",
        "property_link": "https://www.zillow.com/homedetails/8020-Huckleberry-St-1-Anchorage-AK-99502/2089068563_zpid/"
    },
    "house_115": {
        "street_address": "Townhouse for rent - 1810 E 72nd Ave #A, Anchorage, AK 99507",
        "city": "Anchorage",
        "state": "AK",
        "zipCode": "99507",
        "latitude": 61.155277,
        "longitude": -149.84956,
        "beds": 3,
        "rent_price/month": "$1800.0",
        "listed_date": "3 days ago",
        "property_link": "https://www.zillow.com/homedetails/1810-E-72nd-Ave-A-Anchorage-AK-99507/2059108796_zpid/"
    },
    "house_116": {
        "street_address": "Apartment for rent - 8361 E 5th Ave #A, Anchorage, AK 99504",
        "city": "Anchorage",
        "state": "AK",
        "zipCode": "99504",
        "latitude": 61.217884,
        "longitude": -149.7242,
        "beds": 2,
        "rent_price/month": "$2700.0",
        "listed_date": "11 days ago",
        "property_link": "https://www.zillow.com/homedetails/8361-E-5th-Ave-A-Anchorage-AK-99504/2088397918_zpid/"
    },
    "house_117": {
        "street_address": "Apartment for rent - 647 E 74th Ave #1, Anchorage, AK 99518",
        "city": "Anchorage",
        "state": "AK",
        "zipCode": "99518",
        "latitude": 61.154022,
        "longitude": -149.86992,
        "beds": 2,
        "rent_price/month": "$1700.0",
        "listed_date": "10 days ago",
        "property_link": "https://www.zillow.com/homedetails/647-E-74th-Ave-1-Anchorage-AK-99518/2066806412_zpid/"
    },
    "house_118": {
        "street_address": "Apartment for rent - 2510 Sentry Dr APT 302, Anchorage, AK 99507",
        "city": "Anchorage",
        "state": "AK",
        "zipCode": "99507",
        "latitude": 61.13403,
        "longitude": -149.83524,
        "beds": 2,
        "rent_price/month": "$1395.0",
        "listed_date": "4 days ago",
        "property_link": "https://www.zillow.com/homedetails/2510-Sentry-Dr-APT-302-Anchorage-AK-99507/2107463773_zpid/"
    },
    "house_119": {
        "street_address": "House for rent - 147 S Campbell Ct, Palmer, AK 99645",
        "city": "Palmer",
        "state": "AK",
        "zipCode": "99645",
        "latitude": 61.605766,
        "longitude": -149.12706,
        "beds": 3,
        "rent_price/month": "$1900.0",
        "listed_date": "5 days ago",
        "property_link": "https://www.zillow.com/homedetails/147-S-Campbell-Ct-Palmer-AK-99645/90685095_zpid/"
    },
    "house_120": {
        "street_address": "House for rent - (undisclosed Address), Anchorage, AK 99517",
        "city": "Anchorage",
        "state": "AK",
        "zipCode": "99517",
        "latitude": null,
        "longitude": null,
        "beds": 1,
        "rent_price/month": "$1650.0",
        "listed_date": "6 days ago",
        "property_link": "https://www.zillow.com/homedetails/Anchorage-AK-99517/1749_zpid/"
    },
    "house_121": {
        "street_address": "Apartment for rent - (undisclosed Address), Anchorage, AK 99504",
        "city": "Anchorage",
        "state": "AK",
        "zipCode": "99504",
        "latitude": null,
        "longitude": null,
        "beds": 3,
        "rent_price/month": "$1500.0",
        "listed_date": "14 days ago",
        "property_link": "https://www.zillow.com/homedetails/Anchorage-AK-99504/2103206936_zpid/"
    },
    "house_122": {
        "street_address": "Townhouse for rent - 11942 Regency Dr, Eagle River, AK 99577",
        "city": "Eagle River",
        "state": "AK",
        "zipCode": "99577",
        "latitude": 61.32868,
        "longitude": -149.5806,
        "beds": 3,
        "rent_price/month": "$1950.0",
        "listed_date": "6 days ago",
        "property_link": "https://www.zillow.com/homedetails/11942-Regency-Dr-Eagle-River-AK-99577/55911_zpid/"
    },
    "house_123": {
        "street_address": "Apartment for rent - 7447 Jewel Lake Rd APT 1, Anchorage, AK 99502",
        "city": "Anchorage",
        "state": "AK",
        "zipCode": "99502",
        "latitude": 61.153015,
        "longitude": -149.95096,
        "beds": 3,
        "rent_price/month": "$1425.0",
        "listed_date": "11 days ago",
        "property_link": "https://www.zillow.com/homedetails/7447-Jewel-Lake-Rd-APT-1-Anchorage-AK-99502/2086927821_zpid/"
    },
    "house_124": {
        "street_address": "House for rent - 2635 Carroll Pl, Anchorage, AK 99508",
        "city": "Anchorage",
        "state": "AK",
        "zipCode": "99508",
        "latitude": 61.196507,
        "longitude": -149.78252,
        "beds": 1,
        "rent_price/month": "$1700.0",
        "listed_date": "23 hours ago",
        "property_link": "https://www.zillow.com/homedetails/2635-Carroll-Pl-Anchorage-AK-99508/15946_zpid/"
    },
    "house_125": {
        "street_address": "Apartment for rent - 1020 Friendly Ln #2, Anchorage, AK 99504",
        "city": "Anchorage",
        "state": "AK",
        "zipCode": "99504",
        "latitude": 61.212753,
        "longitude": -149.72809,
        "beds": 3,
        "rent_price/month": "$2100.0",
        "listed_date": "14 days ago",
        "property_link": "https://www.zillow.com/homedetails/1020-Friendly-Ln-2-Anchorage-AK-99504/2060585590_zpid/"
    },
    "house_126": {
        "street_address": "Apartment for rent - 133 Roxie Rd UNIT D, Fairbanks, AK 99709",
        "city": "Fairbanks",
        "state": "AK",
        "zipCode": "99709",
        "latitude": 64.86191,
        "longitude": -147.91328,
        "beds": 2,
        "rent_price/month": "$1700.0",
        "listed_date": "19 days ago",
        "property_link": "https://www.zillow.com/homedetails/133-Roxie-Rd-UNIT-D-Fairbanks-AK-99709/2063420166_zpid/"
    },
    "house_127": {
        "street_address": "Apartment for rent - 9715 Independence Dr #107, Anchorage, AK 99507",
        "city": "Anchorage",
        "state": "AK",
        "zipCode": "99507",
        "latitude": 61.133038,
        "longitude": -149.84172,
        "beds": 1,
        "rent_price/month": "$1850.0",
        "listed_date": "15 days ago",
        "property_link": "https://www.zillow.com/homedetails/9715-Independence-Dr-107-Anchorage-AK-99507/2059488430_zpid/"
    },
    "house_128": {
        "street_address": "Apartment for rent - 3901 E 9th Ave APT 4, Anchorage, AK 99508",
        "city": "Anchorage",
        "state": "AK",
        "zipCode": "99508",
        "latitude": 61.214127,
        "longitude": -149.8077,
        "beds": 2,
        "rent_price/month": "$1625.0",
        "listed_date": "14 days ago",
        "property_link": "https://www.zillow.com/homedetails/3901-E-9th-Ave-APT-4-Anchorage-AK-99508/2060505499_zpid/"
    },
    "house_129": {
        "street_address": "Apartment for rent - 7740 Mayfair Dr APT B, Anchorage, AK 99502",
        "city": "Anchorage",
        "state": "AK",
        "zipCode": "99502",
        "latitude": 61.150806,
        "longitude": -149.91914,
        "beds": 2,
        "rent_price/month": "$1535.0",
        "listed_date": "13 days ago",
        "property_link": "https://www.zillow.com/homedetails/7740-Mayfair-Dr-APT-B-Anchorage-AK-99502/2059487153_zpid/"
    },
    "house_130": {
        "street_address": "Apartment for rent - 2121 Free Wright Ln #1, North Pole, AK 99705",
        "city": "North Pole",
        "state": "AK",
        "zipCode": "99705",
        "latitude": 64.772095,
        "longitude": -147.34311,
        "beds": 2,
        "rent_price/month": "$1500.0",
        "listed_date": "9 days ago",
        "property_link": "https://www.zillow.com/homedetails/2121-Free-Wright-Ln-1-North-Pole-AK-99705/2059829790_zpid/"
    },
    "house_131": {
        "street_address": "House for rent - 5831 Jordan Cir, Anchorage, AK 99504",
        "city": "Anchorage",
        "state": "AK",
        "zipCode": "99504",
        "latitude": 61.182465,
        "longitude": -149.77185,
        "beds": 3,
        "rent_price/month": "$2800.0",
        "listed_date": "5 days ago",
        "property_link": "https://www.zillow.com/homedetails/5831-Jordan-Cir-Anchorage-AK-99504/18737_zpid/"
    },
    "house_132": {
        "street_address": "Townhouse for rent - 3853 W 74th Ave UNIT A, Anchorage, AK 99502",
        "city": "Anchorage",
        "state": "AK",
        "zipCode": "99502",
        "latitude": 61.154503,
        "longitude": -149.95049,
        "beds": 3,
        "rent_price/month": "$2050.0",
        "listed_date": "3 days ago",
        "property_link": "https://www.zillow.com/homedetails/3853-W-74th-Ave-UNIT-A-Anchorage-AK-99502/2059107979_zpid/"
    },
    "house_133": {
        "street_address": "Apartment for rent - 824 W 25th Ave #2, Anchorage, AK 99503",
        "city": "Anchorage",
        "state": "AK",
        "zipCode": "99503",
        "latitude": 61.197735,
        "longitude": -149.89911,
        "beds": 2,
        "rent_price/month": "$1400.0",
        "listed_date": "4 days ago",
        "property_link": "https://www.zillow.com/homedetails/824-W-25th-Ave-2-Anchorage-AK-99503/2060722292_zpid/"
    },
    "house_134": {
        "street_address": "Apartment for rent - 524 Craig Ave #3, Fairbanks, AK 99701",
        "city": "Fairbanks",
        "state": "AK",
        "zipCode": "99701",
        "latitude": 64.84788,
        "longitude": -147.67035,
        "beds": 2,
        "rent_price/month": "$1350.0",
        "listed_date": "13 days ago",
        "property_link": "https://www.zillow.com/homedetails/524-Craig-Ave-3-Fairbanks-AK-99701/2059349791_zpid/"
    },
    "house_135": {
        "street_address": "Apartment for rent - 1316 Karluk St #4, Anchorage, AK 99501",
        "city": "Anchorage",
        "state": "AK",
        "zipCode": "99501",
        "latitude": 61.209267,
        "longitude": -149.86342,
        "beds": 2,
        "rent_price/month": "$1400.0",
        "listed_date": "16 days ago",
        "property_link": "https://www.zillow.com/homedetails/1316-Karluk-St-4-Anchorage-AK-99501/2059516783_zpid/"
    },
    "house_136": {
        "street_address": "Apartment for rent - 33840 Gas Well Rd #2, Soldotna, AK 99669",
        "city": "Soldotna",
        "state": "AK",
        "zipCode": "99669",
        "latitude": 60.471058,
        "longitude": -151.17015,
        "beds": 3,
        "rent_price/month": "$1550.0",
        "listed_date": "13 days ago",
        "property_link": "https://www.zillow.com/homedetails/33840-Gas-Well-Rd-2-Soldotna-AK-99669/2078751072_zpid/"
    },
    "house_137": {
        "street_address": "Apartment for rent - 6313 E 32nd Ave, Anchorage, AK 99504",
        "city": "Anchorage",
        "state": "AK",
        "zipCode": "99504",
        "latitude": 61.191875,
        "longitude": -149.76294,
        "beds": 2,
        "rent_price/month": "$1600.0",
        "listed_date": "17 days ago",
        "property_link": "https://www.zillow.com/homedetails/6313-E-32nd-Ave-Anchorage-AK-99504/2112033892_zpid/"
    },
    "house_138": {
        "street_address": "Townhouse for rent - 461 Falke Ct, Anchorage, AK 99504",
        "city": "Anchorage",
        "state": "AK",
        "zipCode": "99504",
        "latitude": 61.217155,
        "longitude": -149.75722,
        "beds": 3,
        "rent_price/month": "$2550.0",
        "listed_date": "10 days ago",
        "property_link": "https://www.zillow.com/homedetails/461-Falke-Ct-Anchorage-AK-99504/82587053_zpid/"
    },
    "house_139": {
        "street_address": "Apartment for rent - 5402 W Dimond Blvd APT 4, Anchorage, AK 99502",
        "city": "Anchorage",
        "state": "AK",
        "zipCode": "99502",
        "latitude": 61.137733,
        "longitude": -149.98186,
        "beds": 2,
        "rent_price/month": "$2700.0",
        "listed_date": "18 days ago",
        "property_link": "https://www.zillow.com/homedetails/5402-W-Dimond-Blvd-APT-4-Anchorage-AK-99502/2073185175_zpid/"
    },
    "house_140": {
        "street_address": "Apartment for rent - 4309 Wisconsin St #5, Anchorage, AK 99517",
        "city": "Anchorage",
        "state": "AK",
        "zipCode": "99517",
        "latitude": 61.181446,
        "longitude": -149.94112,
        "beds": 2,
        "rent_price/month": "$1450.0",
        "listed_date": "11 days ago",
        "property_link": "https://www.zillow.com/homedetails/4309-Wisconsin-St-5-Anchorage-AK-99517/2059283128_zpid/"
    },
    "house_141": {
        "street_address": "Apartment for rent - 810 W 25th Ave #5, Anchorage, AK 99503",
        "city": "Anchorage",
        "state": "AK",
        "zipCode": "99503",
        "latitude": 61.197735,
        "longitude": -149.89882,
        "beds": 2,
        "rent_price/month": "$1400.0",
        "listed_date": "4 days ago",
        "property_link": "https://www.zillow.com/homedetails/810-W-25th-Ave-5-Anchorage-AK-99503/2079034987_zpid/"
    },
    "house_142": {
        "street_address": "Apartment for rent - 1220 E 16th Ave UNIT 6, Anchorage, AK 99501",
        "city": "Anchorage",
        "state": "AK",
        "zipCode": "99501",
        "latitude": 61.20593,
        "longitude": -149.85986,
        "beds": 2,
        "rent_price/month": "$2100.0",
        "listed_date": "14 days ago",
        "property_link": "https://www.zillow.com/homedetails/1220-E-16th-Ave-UNIT-6-Anchorage-AK-99501/4707_zpid/"
    },
    "house_143": {
        "street_address": "Apartment for rent - 2300 E 49th Ct APT 6, Anchorage, AK 99507",
        "city": "Anchorage",
        "state": "AK",
        "zipCode": "99507",
        "latitude": 61.176067,
        "longitude": -149.83705,
        "beds": 2,
        "rent_price/month": "$1350.0",
        "listed_date": "15 days ago",
        "property_link": "https://www.zillow.com/homedetails/2300-E-49th-Ct-APT-6-Anchorage-AK-99507/2105435455_zpid/"
    },
    "house_144": {
        "street_address": "House for rent - 45678 Davison Ave, Kenai, AK 99611",
        "city": "Kenai",
        "state": "AK",
        "zipCode": "99611",
        "latitude": 60.51269,
        "longitude": -151.10957,
        "beds": 2,
        "rent_price/month": "$2200.0",
        "listed_date": "7 days ago",
        "property_link": "https://www.zillow.com/homedetails/45678-Davison-Ave-Kenai-AK-99611/223309659_zpid/"
    },
    "house_145": {
        "street_address": "Apartment for rent - (undisclosed Address), Anchorage, AK 99508",
        "city": "Anchorage",
        "state": "AK",
        "zipCode": "99508",
        "latitude": null,
        "longitude": null,
        "beds": 2,
        "rent_price/month": "$1500.0",
        "listed_date": "16 days ago",
        "property_link": "https://www.zillow.com/homedetails/Anchorage-AK-99508/2059515514_zpid/"
    },
    "house_146": {
        "street_address": "Apartment for rent - 101 W 13th Ave UNIT 104, Anchorage, AK 99501",
        "city": "Anchorage",
        "state": "AK",
        "zipCode": "99501",
        "latitude": 61.209816,
        "longitude": -149.88318,
        "beds": 2,
        "rent_price/month": "$2500.0",
        "listed_date": "25 days ago",
        "property_link": "https://www.zillow.com/homedetails/101-W-13th-Ave-UNIT-104-Anchorage-AK-99501/82585029_zpid/"
    },
    "house_147": {
        "street_address": "Apartment for rent - (undisclosed Address), Wasilla, AK 99654",
        "city": "Wasilla",
        "state": "AK",
        "zipCode": "99654",
        "latitude": null,
        "longitude": null,
        "beds": 2,
        "rent_price/month": "$1600.0",
        "listed_date": "16 days ago",
        "property_link": "https://www.zillow.com/homedetails/Wasilla-AK-99654/2100135212_zpid/"
    },
    "house_148": {
        "street_address": "Apartment for rent - 1507 W 47th Ave APT C, Anchorage, AK 99503",
        "city": "Anchorage",
        "state": "AK",
        "zipCode": "99503",
        "latitude": 61.178024,
        "longitude": -149.91191,
        "beds": 2,
        "rent_price/month": "$1800.0",
        "listed_date": "32 days ago",
        "property_link": "https://www.zillow.com/homedetails/1507-W-47th-Ave-APT-C-Anchorage-AK-99503/2076997790_zpid/"
    },
    "house_149": {
        "street_address": "House for rent - 6953 S Hood Ct, Wasilla, AK 99623",
        "city": "Wasilla",
        "state": "AK",
        "zipCode": "99623",
        "latitude": 61.499386,
        "longitude": -149.66086,
        "beds": 4,
        "rent_price/month": "$2600.0",
        "listed_date": "26 days ago",
        "property_link": "https://www.zillow.com/homedetails/6953-S-Hood-Ct-Wasilla-AK-99623/127128819_zpid/"
    },
    "house_150": {
        "street_address": "House for rent - 1424 W 11th Ave, Anchorage, AK 99501",
        "city": "Anchorage",
        "state": "AK",
        "zipCode": "99501",
        "latitude": 61.211384,
        "longitude": -149.91095,
        "beds": 3,
        "rent_price/month": "$3499.0",
        "listed_date": "13 days ago",
        "property_link": "https://www.zillow.com/homedetails/1424-W-11th-Ave-Anchorage-AK-99501/765_zpid/"
    },
    "house_151": {
        "street_address": "Apartment for rent - 1741 Beaver Pl APT 4, Anchorage, AK 99504",
        "city": "Anchorage",
        "state": "AK",
        "zipCode": "99504",
        "latitude": 61.204395,
        "longitude": -149.76192,
        "beds": 3,
        "rent_price/month": "$1800.0",
        "listed_date": "20 days ago",
        "property_link": "https://www.zillow.com/homedetails/1741-Beaver-Pl-APT-4-Anchorage-AK-99504/2102994496_zpid/"
    },
    "house_152": {
        "street_address": "Apartment for rent - 712 W 47th Ave APT 3, Anchorage, AK 99503",
        "city": "Anchorage",
        "state": "AK",
        "zipCode": "99503",
        "latitude": 61.17745,
        "longitude": -149.89677,
        "beds": 2,
        "rent_price/month": "$1500.0",
        "listed_date": "18 days ago",
        "property_link": "https://www.zillow.com/homedetails/712-W-47th-Ave-APT-3-Anchorage-AK-99503/2079761136_zpid/"
    },
    "house_153": {
        "street_address": "Apartment for rent - 6342 E 16th Ave #2, Anchorage, AK 99504",
        "city": "Anchorage",
        "state": "AK",
        "zipCode": "99504",
        "latitude": 61.205933,
        "longitude": -149.7619,
        "beds": 2,
        "rent_price/month": "$1995.0",
        "listed_date": "14 days ago",
        "property_link": "https://www.zillow.com/homedetails/6342-E-16th-Ave-2-Anchorage-AK-99504/2060588809_zpid/"
    },
    "house_154": {
        "street_address": "Townhouse for rent - 3029 Telequana Dr, Anchorage, AK 99517",
        "city": "Anchorage",
        "state": "AK",
        "zipCode": "99517",
        "latitude": 61.193035,
        "longitude": -149.9563,
        "beds": 4,
        "rent_price/month": "$2500.0",
        "listed_date": "2 days ago",
        "property_link": "https://www.zillow.com/homedetails/3029-Telequana-Dr-Anchorage-AK-99517/23937_zpid/"
    },
    "house_155": {
        "street_address": "Townhouse for rent - 761 N Kimberly St UNIT B, Wasilla, AK 99654",
        "city": "Wasilla",
        "state": "AK",
        "zipCode": "99654",
        "latitude": 61.586933,
        "longitude": -149.50127,
        "beds": 3,
        "rent_price/month": "$1600.0",
        "listed_date": "20 days ago",
        "property_link": "https://www.zillow.com/homedetails/761-N-Kimberly-St-UNIT-B-Wasilla-AK-99654/2059570033_zpid/"
    },
    "house_156": {
        "street_address": "House for rent - 2221 Olympic Dr, Anchorage, AK 99515",
        "city": "Anchorage",
        "state": "AK",
        "zipCode": "99515",
        "latitude": 61.13228,
        "longitude": -149.92078,
        "beds": 4,
        "rent_price/month": "$2599.0",
        "listed_date": "13 days ago",
        "property_link": "https://www.zillow.com/homedetails/2221-Olympic-Dr-Anchorage-AK-99515/36408_zpid/"
    },
    "house_157": {
        "street_address": "Apartment for rent - 2787 Sherwood Ln #105, Juneau, AK 99801",
        "city": "Juneau",
        "state": "AK",
        "zipCode": "99801",
        "latitude": 58.371544,
        "longitude": -134.61604,
        "beds": 2,
        "rent_price/month": "$2500.0",
        "listed_date": "15 days ago",
        "property_link": "https://www.zillow.com/homedetails/2787-Sherwood-Ln-105-Juneau-AK-99801/2069351229_zpid/"
    },
    "house_158": {
        "street_address": "Apartment for rent - 3005 S Donovan Ct, Wasilla, AK 99623",
        "city": "Wasilla",
        "state": "AK",
        "zipCode": "99623",
        "latitude": 61.548878,
        "longitude": -149.54431,
        "beds": 2,
        "rent_price/month": "$1375.0",
        "listed_date": "22 days ago",
        "property_link": "https://www.zillow.com/homedetails/3005-S-Donovan-Ct-Wasilla-AK-99623/2078486900_zpid/"
    },
    "house_159": {
        "street_address": "House for rent - 412 Napakiak Dr, Bethel, AK 99559",
        "city": "Bethel",
        "state": "AK",
        "zipCode": "99559",
        "latitude": 60.794643,
        "longitude": -161.7802,
        "beds": 2,
        "rent_price/month": "$1400.0",
        "listed_date": "22 days ago",
        "property_link": "https://www.zillow.com/homedetails/412-Napakiak-Dr-Bethel-AK-99559/2085701463_zpid/"
    },
    "house_160": {
        "street_address": "Apartment for rent - 2360 Sea Lyon Dr #A1, North Pole, AK 99705",
        "city": "North Pole",
        "state": "AK",
        "zipCode": "99705",
        "latitude": 64.76192,
        "longitude": -147.34161,
        "beds": 1,
        "rent_price/month": "$1700.0",
        "listed_date": "6 days ago",
        "property_link": "https://www.zillow.com/homedetails/2360-Sea-Lyon-Dr-A1-North-Pole-AK-99705/2060188175_zpid/"
    },
    "house_161": {
        "street_address": "House for rent - 918 W 19th Ave, Anchorage, AK 99503",
        "city": "Anchorage",
        "state": "AK",
        "zipCode": "99503",
        "latitude": 61.203175,
        "longitude": -149.90074,
        "beds": 2,
        "rent_price/month": "$1800.0",
        "listed_date": "11 hours ago",
        "property_link": "https://www.zillow.com/homedetails/918-W-19th-Ave-Anchorage-AK-99503/2068649330_zpid/"
    },
    "house_162": {
        "street_address": "House for rent - 1250 S Bodenburg Loop, Palmer, AK 99645",
        "city": "Palmer",
        "state": "AK",
        "zipCode": "99645",
        "latitude": 61.556114,
        "longitude": -149.0439,
        "beds": 0,
        "rent_price/month": "$1400.0",
        "listed_date": "18 days ago",
        "property_link": "https://www.zillow.com/homedetails/1250-S-Bodenburg-Loop-Palmer-AK-99645/90690564_zpid/"
    },
    "house_163": {
        "street_address": "House for rent - 5401 W Limberlost Ave, Wasilla, AK 99623",
        "city": "Wasilla",
        "state": "AK",
        "zipCode": "99623",
        "latitude": 61.548595,
        "longitude": -149.58862,
        "beds": 3,
        "rent_price/month": "$1900.0",
        "listed_date": "21 days ago",
        "property_link": "https://www.zillow.com/homedetails/5401-W-Limberlost-Ave-Wasilla-AK-99623/219477338_zpid/"
    },
    "house_164": {
        "street_address": "Townhouse for rent - 6948 Cape Lisburne Loop, Anchorage, AK 99504",
        "city": "Anchorage",
        "state": "AK",
        "zipCode": "99504",
        "latitude": 61.190933,
        "longitude": -149.75023,
        "beds": 3,
        "rent_price/month": "$2400.0",
        "listed_date": "28 days ago",
        "property_link": "https://www.zillow.com/homedetails/6948-Cape-Lisburne-Loop-Anchorage-AK-99504/19433_zpid/"
    },
    "house_165": {
        "street_address": "Townhouse for rent - 8001 Little Dipper Ave UNIT A, Anchorage, AK 99504",
        "city": "Anchorage",
        "state": "AK",
        "zipCode": "99504",
        "latitude": 61.19122,
        "longitude": -149.73131,
        "beds": 3,
        "rent_price/month": "$2350.0",
        "listed_date": "15 days ago",
        "property_link": "https://www.zillow.com/homedetails/8001-Little-Dipper-Ave-UNIT-A-Anchorage-AK-99504/2114934086_zpid/"
    },
    "house_166": {
        "street_address": "Apartment for rent - 415 D St APT 5, Anchorage, AK 99501",
        "city": "Anchorage",
        "state": "AK",
        "zipCode": "99501",
        "latitude": 61.218216,
        "longitude": -149.88925,
        "beds": 0,
        "rent_price/month": "$1100.0",
        "listed_date": "22 days ago",
        "property_link": "https://www.zillow.com/homedetails/415-D-St-APT-5-Anchorage-AK-99501/2059765622_zpid/"
    },
    "house_167": {
        "street_address": "Townhouse for rent - 1571 Nelchina St APT B10, Anchorage, AK 99501",
        "city": "Anchorage",
        "state": "AK",
        "zipCode": "99501",
        "latitude": 61.20664,
        "longitude": -149.85645,
        "beds": 3,
        "rent_price/month": "$2400.0",
        "listed_date": "13 days ago",
        "property_link": "https://www.zillow.com/homedetails/1571-Nelchina-St-APT-B10-Anchorage-AK-99501/4740_zpid/"
    },
    "house_168": {
        "street_address": "Apartment for rent - 3011B Clinton Dr, Juneau, AK 99801",
        "city": "Juneau",
        "state": "AK",
        "zipCode": "99801",
        "latitude": 58.370827,
        "longitude": -134.59985,
        "beds": 2,
        "rent_price/month": "$2200.0",
        "listed_date": "28 days ago",
        "property_link": "https://www.zillow.com/homedetails/3011B-Clinton-Dr-Juneau-AK-99801/2059889337_zpid/"
    },
    "house_169": {
        "street_address": "House for rent - 7277 E Jim Cottrell Cir, Palmer, AK 99645",
        "city": "Palmer",
        "state": "AK",
        "zipCode": "99645",
        "latitude": 61.57662,
        "longitude": -149.2677,
        "beds": 3,
        "rent_price/month": "$2195.0",
        "listed_date": "5 days ago",
        "property_link": "https://www.zillow.com/homedetails/7277-E-Jim-Cottrell-Cir-Palmer-AK-99645/2061349098_zpid/"
    },
    "house_170": {
        "street_address": "House for rent - 25822 Berryhill Rd, Eagle River, AK 99577",
        "city": "Eagle River",
        "state": "AK",
        "zipCode": "99577",
        "latitude": 61.290066,
        "longitude": -149.3995,
        "beds": 3,
        "rent_price/month": "$2550.0",
        "listed_date": "24 days ago",
        "property_link": "https://www.zillow.com/homedetails/25822-Berryhill-Rd-Eagle-River-AK-99577/68020024_zpid/"
    },
    "house_171": {
        "street_address": "Apartment for rent - 8010 Greenwood St APT 2, Anchorage, AK 99518",
        "city": "Anchorage",
        "state": "AK",
        "zipCode": "99518",
        "latitude": 61.14798,
        "longitude": -149.85892,
        "beds": 1,
        "rent_price/month": "$1300.0",
        "listed_date": "1 day ago",
        "property_link": "https://www.zillow.com/homedetails/8010-Greenwood-St-APT-2-Anchorage-AK-99518/2060270802_zpid/"
    },
    "house_172": {
        "street_address": "Apartment for rent - 400 W 11th Ave APT 4, Anchorage, AK 99501",
        "city": "Anchorage",
        "state": "AK",
        "zipCode": "99501",
        "latitude": 61.21138,
        "longitude": -149.88951,
        "beds": 1,
        "rent_price/month": "$950.0",
        "listed_date": "26 days ago",
        "property_link": "https://www.zillow.com/homedetails/400-W-11th-Ave-APT-4-Anchorage-AK-99501/2095062511_zpid/"
    },
    "house_173": {
        "street_address": "Townhouse for rent - 895 E Susitna Ave UNIT 3, Wasilla, AK 99654",
        "city": "Wasilla",
        "state": "AK",
        "zipCode": "99654",
        "latitude": 61.57913,
        "longitude": -149.42857,
        "beds": 3,
        "rent_price/month": "$2079.0",
        "listed_date": "18 days ago",
        "property_link": "https://www.zillow.com/homedetails/895-E-Susitna-Ave-UNIT-3-Wasilla-AK-99654/2093515902_zpid/"
    },
    "house_174": {
        "street_address": "House for rent - 8120 Lamplighter Ct, Anchorage, AK 99502",
        "city": "Anchorage",
        "state": "AK",
        "zipCode": "99502",
        "latitude": 61.14611,
        "longitude": -149.91785,
        "beds": 3,
        "rent_price/month": "$1950.0",
        "listed_date": "31 days ago",
        "property_link": "https://www.zillow.com/homedetails/8120-Lamplighter-Ct-Anchorage-AK-99502/36705_zpid/"
    },
    "house_175": {
        "street_address": "House for rent - 1323 W 13th Ave, Anchorage, AK 99501",
        "city": "Anchorage",
        "state": "AK",
        "zipCode": "99501",
        "latitude": 61.209797,
        "longitude": -149.90877,
        "beds": 2,
        "rent_price/month": "$2000.0",
        "listed_date": "30 days ago",
        "property_link": "https://www.zillow.com/homedetails/1323-W-13th-Ave-Anchorage-AK-99501/2059958166_zpid/"
    },
    "house_176": {
        "street_address": "Apartment for rent - 3720 Young St #A, Anchorage, AK 99508",
        "city": "Anchorage",
        "state": "AK",
        "zipCode": "99508",
        "latitude": 61.186512,
        "longitude": -149.84084,
        "beds": 3,
        "rent_price/month": "$3000.0",
        "listed_date": "20 days ago",
        "property_link": "https://www.zillow.com/homedetails/3720-Young-St-A-Anchorage-AK-99508/2078333248_zpid/"
    },
    "house_177": {
        "street_address": "Apartment for rent - 843 W 11th Ave APT 210, Anchorage, AK 99501",
        "city": "Anchorage",
        "state": "AK",
        "zipCode": "99501",
        "latitude": 61.211796,
        "longitude": -149.89848,
        "beds": 0,
        "rent_price/month": "$1000.0",
        "listed_date": "15 days ago",
        "property_link": "https://www.zillow.com/homedetails/843-W-11th-Ave-APT-210-Anchorage-AK-99501/527_zpid/"
    },
    "house_178": {
        "street_address": "House for rent - 2315 Culver Pl, Anchorage, AK 99503",
        "city": "Anchorage",
        "state": "AK",
        "zipCode": "99503",
        "latitude": 61.199,
        "longitude": -149.91153,
        "beds": 2,
        "rent_price/month": "$2500.0",
        "listed_date": "13 days ago",
        "property_link": "https://www.zillow.com/homedetails/2315-Culver-Pl-Anchorage-AK-99503/1576_zpid/"
    },
    "house_179": {
        "street_address": "Townhouse for rent - 460 Dailey Ave #C7, Anchorage, AK 99515",
        "city": "Anchorage",
        "state": "AK",
        "zipCode": "99515",
        "latitude": 61.11034,
        "longitude": -149.87299,
        "beds": 2,
        "rent_price/month": "$2250.0",
        "listed_date": "14 days ago",
        "property_link": "https://www.zillow.com/homedetails/460-Dailey-Ave-C7-Anchorage-AK-99515/2068011700_zpid/"
    },
    "house_180": {
        "street_address": "House for rent - 660 Kilo Ct, Fairbanks, AK 99712",
        "city": "Fairbanks",
        "state": "AK",
        "zipCode": "99712",
        "latitude": 64.83869,
        "longitude": -147.54866,
        "beds": 3,
        "rent_price/month": "$1800.0",
        "listed_date": "20 days ago",
        "property_link": "https://www.zillow.com/homedetails/660-Kilo-Ct-Fairbanks-AK-99712/219808150_zpid/"
    },
    "house_181": {
        "street_address": "Apartment for rent - 4301 Garfield St APT C, Anchorage, AK 99503",
        "city": "Anchorage",
        "state": "AK",
        "zipCode": "99503",
        "latitude": 61.181686,
        "longitude": -149.9083,
        "beds": 1,
        "rent_price/month": "$1150.0",
        "listed_date": "13 days ago",
        "property_link": "https://www.zillow.com/homedetails/4301-Garfield-St-APT-C-Anchorage-AK-99503/2060158153_zpid/"
    },
    "house_182": {
        "street_address": "House for rent - 59565 E End Rd, Homer, AK 99603",
        "city": "Homer",
        "state": "AK",
        "zipCode": "99603",
        "latitude": 59.673504,
        "longitude": -151.42715,
        "beds": 0,
        "rent_price/month": "$1300.0",
        "listed_date": "37 days ago",
        "property_link": "https://www.zillow.com/homedetails/59565-E-End-Rd-Homer-AK-99603/304812922_zpid/"
    },
    "house_183": {
        "street_address": "Apartment for rent - 524 N Park St UNIT 2, Anchorage, AK 99508",
        "city": "Anchorage",
        "state": "AK",
        "zipCode": "99508",
        "latitude": 61.22832,
        "longitude": -149.80331,
        "beds": 3,
        "rent_price/month": "$1400.0",
        "listed_date": "20 days ago",
        "property_link": "https://www.zillow.com/homedetails/524-N-Park-St-UNIT-2-Anchorage-AK-99508/2066689774_zpid/"
    },
    "house_184": {
        "street_address": "House for rent - 5789 N Tahoe Dr, Wasilla, AK 99654",
        "city": "Wasilla",
        "state": "AK",
        "zipCode": "99654",
        "latitude": 61.64758,
        "longitude": -149.26443,
        "beds": 4,
        "rent_price/month": "$3250.0",
        "listed_date": "9 days ago",
        "property_link": "https://www.zillow.com/homedetails/5789-N-Tahoe-Dr-Wasilla-AK-99654/305398208_zpid/"
    },
    "house_185": {
        "street_address": "Apartment for rent - 1220 Glacier Ave APT 312, Juneau, AK 99801",
        "city": "Juneau",
        "state": "AK",
        "zipCode": "99801",
        "latitude": 58.30366,
        "longitude": -134.42325,
        "beds": 3,
        "rent_price/month": "$2500.0",
        "listed_date": "33 days ago",
        "property_link": "https://www.zillow.com/homedetails/1220-Glacier-Ave-APT-312-Juneau-AK-99801/74504273_zpid/"
    },
    "house_186": {
        "street_address": "Townhouse for rent - 951 W 12th Ave, Anchorage, AK 99501",
        "city": "Anchorage",
        "state": "AK",
        "zipCode": "99501",
        "latitude": 61.21095,
        "longitude": -149.90141,
        "beds": 2,
        "rent_price/month": "$2600.0",
        "listed_date": "17 days ago",
        "property_link": "https://www.zillow.com/homedetails/951-W-12th-Ave-Anchorage-AK-99501/571_zpid/"
    },
    "house_187": {
        "street_address": "Apartment for rent - 600 Noble St STE H, Fairbanks, AK 99701",
        "city": "Fairbanks",
        "state": "AK",
        "zipCode": "99701",
        "latitude": 64.84145,
        "longitude": -147.71513,
        "beds": 1,
        "rent_price/month": "$1500.0",
        "listed_date": "77 days ago",
        "property_link": "https://www.zillow.com/homedetails/600-Noble-St-STE-H-Fairbanks-AK-99701/2082388898_zpid/"
    },
    "house_188": {
        "street_address": "Apartment for rent - 315 E 12th Ave #448, Anchorage, AK 99501",
        "city": "Anchorage",
        "state": "AK",
        "zipCode": "99501",
        "latitude": 61.210808,
        "longitude": -149.87889,
        "beds": 1,
        "rent_price/month": "$1600.0",
        "listed_date": "15 days ago",
        "property_link": "https://www.zillow.com/homedetails/315-E-12th-Ave-448-Anchorage-AK-99501/2069734004_zpid/"
    },
    "house_189": {
        "street_address": "House for rent - 20544 Philadelphia Way, Eagle River, AK 99577",
        "city": "Eagle River",
        "state": "AK",
        "zipCode": "99577",
        "latitude": 61.314537,
        "longitude": -149.49878,
        "beds": 5,
        "rent_price/month": "$5900.0",
        "listed_date": "31 days ago",
        "property_link": "https://www.zillow.com/homedetails/20544-Philadelphia-Way-Eagle-River-AK-99577/130225191_zpid/"
    },
    "house_190": {
        "street_address": "House for rent - 1536-4 Stacia St, Fairbanks, AK 99701",
        "city": "Fairbanks",
        "state": "AK",
        "zipCode": "99701",
        "latitude": 64.835365,
        "longitude": -147.71931,
        "beds": 1,
        "rent_price/month": "$1100.0",
        "listed_date": "22 days ago",
        "property_link": "https://www.zillow.com/homedetails/1536-4-Stacia-St-Fairbanks-AK-99701/2060293480_zpid/"
    },
    "house_191": {
        "street_address": "Apartment for rent - 5350 Lake Otis Pkwy #1, Anchorage, AK 99507",
        "city": "Anchorage",
        "state": "AK",
        "zipCode": "99507",
        "latitude": 61.172264,
        "longitude": -149.83919,
        "beds": 2,
        "rent_price/month": "$1445.0",
        "listed_date": "20 days ago",
        "property_link": "https://www.zillow.com/homedetails/5350-Lake-Otis-Pkwy-1-Anchorage-AK-99507/2060249176_zpid/"
    },
    "house_192": {
        "street_address": "Townhouse for rent - 36163 Pine St #1, Soldotna, AK 99669",
        "city": "Soldotna",
        "state": "AK",
        "zipCode": "99669",
        "latitude": 60.50418,
        "longitude": -150.98276,
        "beds": 2,
        "rent_price/month": "$1450.0",
        "listed_date": "10 days ago",
        "property_link": "https://www.zillow.com/homedetails/36163-Pine-St-1-Soldotna-AK-99669/2060348263_zpid/"
    },
    "house_193": {
        "street_address": "Townhouse for rent - 6044 Kody Dr, Anchorage, AK 99504",
        "city": "Anchorage",
        "state": "AK",
        "zipCode": "99504",
        "latitude": 61.181293,
        "longitude": -149.7679,
        "beds": 5,
        "rent_price/month": "$3252.0",
        "listed_date": "55 days ago",
        "property_link": "https://www.zillow.com/homedetails/6044-Kody-Dr-Anchorage-AK-99504/2125213934_zpid/"
    },
    "house_194": {
        "street_address": "For Rent - 2906 W 32nd Ave, Anchorage, AK",
        "city": "Anchorage",
        "state": "AK",
        "zipCode": "99517",
        "latitude": 61.191475,
        "longitude": -149.9381,
        "beds": "1",
        "rent_price/month": "$1,300+",
        "listed_date": "1 day ago",
        "property_link": "https://www.zillow.com/b/2906-w-32nd-ave-anchorage-ak-9VmFmh/"
    },
    "house_195": {
        "street_address": "House for rent - 3203 Jony Dan Ln, North Pole, AK 99705",
        "city": "North Pole",
        "state": "AK",
        "zipCode": "99705",
        "latitude": 64.75654,
        "longitude": -147.31885,
        "beds": 3,
        "rent_price/month": "$1500.0",
        "listed_date": "18 days ago",
        "property_link": "https://www.zillow.com/homedetails/3203-Jony-Dan-Ln-North-Pole-AK-99705/74493992_zpid/"
    },
    "house_196": {
        "street_address": "Townhouse for rent - 460 Dailey Ave #C6, Anchorage, AK 99515",
        "city": "Anchorage",
        "state": "AK",
        "zipCode": "99515",
        "latitude": 61.110344,
        "longitude": -149.873,
        "beds": 2,
        "rent_price/month": "$2095.0",
        "listed_date": "48 days ago",
        "property_link": "https://www.zillow.com/homedetails/460-Dailey-Ave-C6-Anchorage-AK-99515/2060694240_zpid/"
    },
    "house_197": {
        "street_address": "Apartment for rent - 1509 W 9th Ave #201, Anchorage, AK 99501",
        "city": "Anchorage",
        "state": "AK",
        "zipCode": "99501",
        "latitude": 61.213856,
        "longitude": -149.91278,
        "beds": 2,
        "rent_price/month": "$2950.0",
        "listed_date": "3D Tour",
        "property_link": "https://www.zillow.com/homedetails/1509-W-9th-Ave-201-Anchorage-AK-99501/2060666365_zpid/"
    },
    "house_198": {
        "street_address": "Apartment for rent - 100 E Fireweed Ln #5, Anchorage, AK 99503",
        "city": "Anchorage",
        "state": "AK",
        "zipCode": "99503",
        "latitude": 61.197784,
        "longitude": -149.88258,
        "beds": 1,
        "rent_price/month": "$1295.0",
        "listed_date": "43 days ago",
        "property_link": "https://www.zillow.com/homedetails/100-E-Fireweed-Ln-5-Anchorage-AK-99503/2079197788_zpid/"
    },
    "house_199": {
        "street_address": "Apartment for rent - 5300 Lake Otis Pkwy #7, Anchorage, AK 99507",
        "city": "Anchorage",
        "state": "AK",
        "zipCode": "99507",
        "latitude": 61.172462,
        "longitude": -149.83855,
        "beds": 2,
        "rent_price/month": "$1545.0",
        "listed_date": "48 days ago",
        "property_link": "https://www.zillow.com/homedetails/5300-Lake-Otis-Pkwy-7-Anchorage-AK-99507/2079984870_zpid/"
    },
    "house_200": {
        "street_address": "Apartment for rent - 17046 Easy St, Eagle River, AK 99577",
        "city": "Eagle River",
        "state": "AK",
        "zipCode": "99577",
        "latitude": 61.326862,
        "longitude": -149.56375,
        "beds": 1,
        "rent_price/month": "$1300.0",
        "listed_date": "8 days ago",
        "property_link": "https://www.zillow.com/homedetails/17046-Easy-St-Eagle-River-AK-99577/2085569256_zpid/"
    },
    "house_201": {
        "street_address": "Townhouse for rent - 2710 Natalie Ave #A, North Pole, AK 99705",
        "city": "North Pole",
        "state": "AK",
        "zipCode": "99705",
        "latitude": 64.78652,
        "longitude": -147.37093,
        "beds": 3,
        "rent_price/month": "$2250.0",
        "listed_date": "72 days ago",
        "property_link": "https://www.zillow.com/homedetails/2710-Natalie-Ave-A-North-Pole-AK-99705/2085338054_zpid/"
    },
    "house_202": {
        "street_address": "Townhouse for rent - 7308 Chugach Meadows Loop, Anchorage, AK 99507",
        "city": "Anchorage",
        "state": "AK",
        "zipCode": "99507",
        "latitude": 61.1541,
        "longitude": -149.85214,
        "beds": 2,
        "rent_price/month": "$2300.0",
        "listed_date": "20 days ago",
        "property_link": "https://www.zillow.com/homedetails/7308-Chugach-Meadows-Loop-Anchorage-AK-99507/2126978493_zpid/"
    },
    "house_203": {
        "street_address": "Apartment for rent - 1303 20th Ave #2, Fairbanks, AK 99701",
        "city": "Fairbanks",
        "state": "AK",
        "zipCode": "99701",
        "latitude": 64.829056,
        "longitude": -147.73466,
        "beds": 2,
        "rent_price/month": "$2000.0",
        "listed_date": "20 days ago",
        "property_link": "https://www.zillow.com/homedetails/1303-20th-Ave-2-Fairbanks-AK-99701/2063331933_zpid/"
    },
    "house_204": {
        "street_address": "Apartment for rent - 402 W Cottonwood Ave #4, Palmer, AK 99645",
        "city": "Palmer",
        "state": "AK",
        "zipCode": "99645",
        "latitude": 61.603024,
        "longitude": -149.12007,
        "beds": 1,
        "rent_price/month": "$1000.0",
        "listed_date": "34 days ago",
        "property_link": "https://www.zillow.com/homedetails/402-W-Cottonwood-Ave-4-Palmer-AK-99645/2060739650_zpid/"
    },
    "house_205": {
        "street_address": "House for rent - 2370 Canary Ct, Anchorage, AK 99515",
        "city": "Anchorage",
        "state": "AK",
        "zipCode": "99515",
        "latitude": 61.136993,
        "longitude": -149.92465,
        "beds": 3,
        "rent_price/month": "$3600.0",
        "listed_date": "32 days ago",
        "property_link": "https://www.zillow.com/homedetails/2370-Canary-Ct-Anchorage-AK-99515/35379_zpid/"
    },
    "house_206": {
        "street_address": "House for rent - 2617 Frigate Cir, Anchorage, AK 99515",
        "city": "Anchorage",
        "state": "AK",
        "zipCode": "99515",
        "latitude": 61.125416,
        "longitude": -149.92911,
        "beds": 3,
        "rent_price/month": "$6750.0",
        "listed_date": "84 days ago",
        "property_link": "https://www.zillow.com/homedetails/2617-Frigate-Cir-Anchorage-AK-99515/68023128_zpid/"
    },
    "house_207": {
        "street_address": "Apartment for rent - 5326 Lionheart Dr APT 7, Anchorage, AK 99508",
        "city": "Anchorage",
        "state": "AK",
        "zipCode": "99508",
        "latitude": 61.22021,
        "longitude": -149.78186,
        "beds": 2,
        "rent_price/month": "$1445.0",
        "listed_date": "39 days ago",
        "property_link": "https://www.zillow.com/homedetails/5326-Lionheart-Dr-APT-7-Anchorage-AK-99508/2092123350_zpid/"
    },
    "house_208": {
        "street_address": "Apartment for rent - 4000 N Barbara St UNIT B, Wasilla, AK 99654",
        "city": "Wasilla",
        "state": "AK",
        "zipCode": "99654",
        "latitude": 61.62589,
        "longitude": -149.27975,
        "beds": 2,
        "rent_price/month": "$1700.0",
        "listed_date": "35 days ago",
        "property_link": "https://www.zillow.com/homedetails/4000-N-Barbara-St-UNIT-B-Wasilla-AK-99654/2078349957_zpid/"
    },
    "house_209": {
        "street_address": "House for rent - 21619 Bear View Pl, Chugiak, AK 99567",
        "city": "Chugiak",
        "state": "AK",
        "zipCode": "99567",
        "latitude": 61.41571,
        "longitude": -149.4392,
        "beds": 3,
        "rent_price/month": "$2400.0",
        "listed_date": "17 days ago",
        "property_link": "https://www.zillow.com/homedetails/21619-Bear-View-Pl-Chugiak-AK-99567/60248_zpid/"
    },
    "house_210": {
        "street_address": "Apartment for rent - (undisclosed Address), Anchorage, AK 99504",
        "city": "Anchorage",
        "state": "AK",
        "zipCode": "99504",
        "latitude": null,
        "longitude": null,
        "beds": 1,
        "rent_price/month": "$2950.0",
        "listed_date": "11 days ago",
        "property_link": "https://www.zillow.com/homedetails/Anchorage-AK-99504/2067699212_zpid/"
    },
    "house_211": {
        "street_address": "Townhouse for rent - 1591 Elcadore Dr #C, Anchorage, AK 99507",
        "city": "Anchorage",
        "state": "AK",
        "zipCode": "99507",
        "latitude": 61.123917,
        "longitude": -149.85452,
        "beds": 3,
        "rent_price/month": "$2000.0",
        "listed_date": "16 days ago",
        "property_link": "https://www.zillow.com/homedetails/1591-Elcadore-Dr-C-Anchorage-AK-99507/2060194053_zpid/"
    },
    "house_212": {
        "street_address": "Apartment for rent - 2004 W 46th Ave #A, Anchorage, AK 99517",
        "city": "Anchorage",
        "state": "AK",
        "zipCode": "99517",
        "latitude": 61.17875,
        "longitude": -149.9203,
        "beds": 3,
        "rent_price/month": "$2800.0",
        "listed_date": "116 days ago",
        "property_link": "https://www.zillow.com/homedetails/2004-W-46th-Ave-A-Anchorage-AK-99517/2123491108_zpid/"
    },
    "house_213": {
        "street_address": "Townhouse for rent - 6810 Gold Kings Cir UNIT C, Anchorage, AK 99504",
        "city": "Anchorage",
        "state": "AK",
        "zipCode": "99504",
        "latitude": 61.22336,
        "longitude": -149.75392,
        "beds": 3,
        "rent_price/month": "$2195.0",
        "listed_date": "48 days ago",
        "property_link": "https://www.zillow.com/homedetails/6810-Gold-Kings-Cir-UNIT-C-Anchorage-AK-99504/2088743902_zpid/"
    },
    "house_214": {
        "street_address": "House for rent - 3026 Riverview Dr, Fairbanks, AK 99709",
        "city": "Fairbanks",
        "state": "AK",
        "zipCode": "99709",
        "latitude": 64.84385,
        "longitude": -147.79015,
        "beds": 3,
        "rent_price/month": "$3200.0",
        "listed_date": "1 day ago",
        "property_link": "https://www.zillow.com/homedetails/3026-Riverview-Dr-Fairbanks-AK-99709/74501056_zpid/"
    },
    "house_215": {
        "street_address": "House for rent - 161 Willow View Cir #161, Anchorage, AK 99504",
        "city": "Anchorage",
        "state": "AK",
        "zipCode": "99504",
        "latitude": 61.222977,
        "longitude": -149.76405,
        "beds": 3,
        "rent_price/month": "$1995.0",
        "listed_date": "1 day ago",
        "property_link": "https://www.zillow.com/homedetails/161-Willow-View-Cir-161-Anchorage-AK-99504/2079139116_zpid/"
    },