street_address,city,state,zipCode,latitude,longitude,beds,sale_price,listed_date,property_link
10461 Texas Hwy,Many,LA,71449,31.492012,-93.629425,3.0,$349500.0,3D Tour,https://www.zillow.com/homedetails/10461-Texas-Hwy-Many-LA-71449/112225450_zpid/
6024 Manassas Dr,Baton Rouge,LA,70817,30.395586,-90.99866,3.0,$249900.0,5 days on Zillow,https://www.zillow.com/homedetails/6024-Manassas-Dr-Baton-Rouge-LA-70817/66357945_zpid/
4420 Murano Rd,New Orleans,LA,70129,30.068354,-89.81459,4.0,$299000.0,182 days on Zillow,https://www.zillow.com/homedetails/4420-Murano-Rd-New-Orleans-LA-70129/84467990_zpid/
19286 Palmer Rd,Livingston,LA,70754,30.353611,-90.77368,4.0,$240000.0,"$35,000 (Feb 17)",https://www.zillow.com/homedetails/19286-Palmer-Rd-Livingston-LA-70754/77689456_zpid/
23083 Kilgore St,Mandeville,LA,70471,30.440004,-90.02475,3.0,$249900.0,"$20,000 (Feb 14)",https://www.zillow.com/homedetails/23083-Kilgore-St-Mandeville-LA-70471/123626641_zpid/
1001 S Bengal Rd,Metairie,LA,70003,29.977333,-90.233536,3.0,$250000.0,6 days on Zillow,https://www.zillow.com/homedetails/1001-S-Bengal-Rd-Metairie-LA-70003/73748642_zpid/
9414 High Point Rd,Baton Rouge,LA,70810,30.370995,-91.11364,3.0,$219900.0,4 days on Zillow,https://www.zillow.com/homedetails/9414-High-Point-Rd-Baton-Rouge-LA-70810/66278012_zpid/
9041 Alder Dr,Baton Rouge,LA,70817,30.369026,-91.00659,3.0,$259900.0,4 days on Zillow,https://www.zillow.com/homedetails/9041-Alder-Dr-Baton-Rouge-LA-70817/66269170_zpid/
439 Woodfield Blvd,Houma,LA,70364,29.644817,-90.74888,3.0,$114500.0,4 days on Zillow,https://www.zillow.com/homedetails/439-Woodfield-Blvd-Houma-LA-70364/77773504_zpid/
620 Decatur St APT P,New Orleans,LA,70130,29.956257,-90.06274,1.0,$125000.0,5 days on Zillow,https://www.zillow.com/homedetails/620-Decatur-St-APT-P-New-Orleans-LA-70130/126451995_zpid/
4128 Fiesta St,New Orleans,LA,70131,29.92984,-90.013306,5.0,$179900.0,3 days on Zillow,https://www.zillow.com/homedetails/4128-Fiesta-St-New-Orleans-LA-70131/73828054_zpid/
4849 Magazine St #B,New Orleans,LA,70115,29.920462,-90.10731,2.0,$315000.0,"$10,000 (Feb 14)",https://www.zillow.com/homedetails/4849-Magazine-St-B-New-Orleans-LA-70115/110379954_zpid/
6989 Celia Ave,Baton Rouge,LA,70811,30.55504,-91.11954,4.0,$242000.0,"$13,000 (Dec 21)",https://www.zillow.com/homedetails/6989-Celia-Ave-Baton-Rouge-LA-70811/66323047_zpid/
554 East St,Denham Springs,LA,70726,30.475908,-90.94949,3.0,$189000.0,3 days on Zillow,https://www.zillow.com/homedetails/554-East-St-Denham-Springs-LA-70726/110918568_zpid/
919 Governor Nicholls St #3,New Orleans,LA,70116,29.96378,-90.06317,1.0,$269000.0,21 days on Zillow,https://www.zillow.com/homedetails/919-Governor-Nicholls-St-3-New-Orleans-LA-70116/73780542_zpid/
2806 Allen St,Sulphur,LA,70665,30.211723,-93.373024,3.0,$124900.0,14 days on Zillow,https://www.zillow.com/homedetails/2806-Allen-St-Sulphur-LA-70665/77592870_zpid/
4510 Fort Macomb Rd,New Orleans,LA,70129,30.068073,-89.80919,4.0,$379000.0,"$11,000 (Jan 5)",https://www.zillow.com/homedetails/4510-Fort-Macomb-Rd-New-Orleans-LA-70129/73818961_zpid/
38015 Willow Lake Dr,Prairieville,LA,70769,30.3158,-90.973526,3.0,$325000.0,3 days on Zillow,https://www.zillow.com/homedetails/38015-Willow-Lake-Dr-Prairieville-LA-70769/252197073_zpid/
1020 Esplanade Ave APT 202,New Orleans,LA,70116,29.965221,-90.06293,2.0,$360000.0,"$15,000 (Jan 26)",https://www.zillow.com/homedetails/1020-Esplanade-Ave-APT-202-New-Orleans-LA-70116/73779870_zpid/
2525 Amarillo St,Baton Rouge,LA,70805,30.500446,-91.16482,3.0,$139000.0,"$10,900 (Feb 16)",https://www.zillow.com/homedetails/2525-Amarillo-St-Baton-Rouge-LA-70805/119329143_zpid/
1008 Stones Way Dr,Pineville,LA,71360,31.373537,-92.4509,3.0,$185000.0,2 days on Zillow,https://www.zillow.com/homedetails/1008-Stones-Way-Dr-Pineville-LA-71360/77708891_zpid/
101 Declouet Ave,Lafayette,LA,70506,30.166626,-92.11044,,$23000.0,16 hours ago,https://www.zillow.com/homedetails/101-Declouet-Ave-Lafayette-LA-70506/140738071_zpid/
100 Foreman Dr,Rayne,LA,70578,30.263906,-92.2656,,$120000.0,13 hours ago,https://www.zillow.com/homedetails/100-Foreman-Dr-Rayne-LA-70578/2059083762_zpid/
1007 Fairview St,Shreveport,LA,71104,32.475815,-93.75121,4.0,$249000.0,"$40,000 (Jan 10)",https://www.zillow.com/homedetails/1007-Fairview-St-Shreveport-LA-71104/51358421_zpid/
15406 Tchefuncte Dr,Covington,LA,70433,30.482782,-90.14975,4.0,$289900.0,"$8,600 (Feb 18)",https://www.zillow.com/homedetails/15406-Tchefuncte-Dr-Covington-LA-70433/96238583_zpid/
1805 Wagner St,New Orleans,LA,70114,29.935455,-90.04072,4.0,$60000.0,"$15,000 (Jan 23)",https://www.zillow.com/homedetails/1805-Wagner-St-New-Orleans-LA-70114/73824324_zpid/
513 Flanders Ridge Dr,Youngsville,LA,70592,30.094536,-91.97625,3.0,$269900.0,"$5,100 (Feb 17)",https://www.zillow.com/homedetails/513-Flanders-Ridge-Dr-Youngsville-LA-70592/123447320_zpid/
0 Lakeside Loop #4,Many,LA,71449,31.343334,-93.59162,,$24500.0,1 day on Zillow,https://www.zillow.com/homedetails/0-Lakeside-Loop-4-Many-LA-71449/2059091779_zpid/
5124 Constance St,New Orleans,LA,70115,29.919142,-90.11081,4.0,$410000.0,"$25,000 (Jan 6)",https://www.zillow.com/homedetails/5124-Constance-St-New-Orleans-LA-70115/149068122_zpid/
2265 Lyonswood Dr,Sulphur,LA,70663,30.224384,-93.4226,4.0,$285000.0,4 days on Zillow,https://www.zillow.com/homedetails/2265-Lyonswood-Dr-Sulphur-LA-70663/77616306_zpid/
4008 S Inwood Ave,New Orleans,LA,70131,29.904497,-89.99319,4.0,$270000.0,"$9,000 (Feb 16)",https://www.zillow.com/homedetails/4008-S-Inwood-Ave-New-Orleans-LA-70131/73833909_zpid/
1300 Gordon St,New Orleans,LA,70117,29.962322,-90.011536,,$30000.0,16 hours ago,https://www.zillow.com/homedetails/1300-Gordon-St-New-Orleans-LA-70117/84460385_zpid/
214 Rossitter St,Shreveport,LA,71105,32.44477,-93.71062,3.0,$230000.0,3 days on Zillow,https://www.zillow.com/homedetails/214-Rossitter-St-Shreveport-LA-71105/51340213_zpid/
121 Triple Crown Cir,Carencro,LA,70520,30.312021,-92.04715,3.0,$180000.0,5 days on Zillow,https://www.zillow.com/homedetails/121-Triple-Crown-Cir-Carencro-LA-70520/77641407_zpid/
1302 W Port St,Abbeville,LA,70510,29.977068,-92.147385,4.0,$178000.0,"$7,000 (Feb 7)",https://www.zillow.com/homedetails/1302-W-Port-St-Abbeville-LA-70510/116003167_zpid/
821 Royal St #3,New Orleans,LA,70116,29.959297,-90.063705,1.0,$349000.0,12 days on Zillow,https://www.zillow.com/homedetails/821-Royal-St-3-New-Orleans-LA-70116/2070058914_zpid/
15327 Woodlore Dr,Baton Rouge,LA,70816,30.452515,-91.01243,3.0,$237000.0,3 days on Zillow,https://www.zillow.com/homedetails/15327-Woodlore-Dr-Baton-Rouge-LA-70816/66274914_zpid/
114 Trojan Pl,Lafayette,LA,70508,30.150839,-91.9885,3.0,$195000.0,5 days on Zillow,https://www.zillow.com/homedetails/114-Trojan-Pl-Lafayette-LA-70508/77671053_zpid/
507 Willow St,Thibodaux,LA,70301,29.792711,-90.83049,6.0,$170000.0,2 days on Zillow,https://www.zillow.com/homedetails/507-Willow-St-Thibodaux-LA-70301/119468691_zpid/
618 Legendre Dr,Slidell,LA,70460,30.263123,-89.83458,3.0,$287000.0,218 days on Zillow,https://www.zillow.com/homedetails/618-Legendre-Dr-Slidell-LA-70460/96199768_zpid/
1207 Marteau Rd,Youngsville,LA,70592,30.091974,-91.958466,3.0,$195000.0,"$10,000 (Dec 7)",https://www.zillow.com/homedetails/1207-Marteau-Rd-Youngsville-LA-70592/77642940_zpid/
0 Lakeside Loop #3,Many,LA,71449,31.343334,-93.59162,,$32000.0,1 day on Zillow,https://www.zillow.com/homedetails/0-Lakeside-Loop-3-Many-LA-71449/2059091777_zpid/
0 Little Flock Rd TRACT 2,Many,LA,71449,31.375874,-93.60936,,$35000.0,1 day on Zillow,https://www.zillow.com/homedetails/0-Little-Flock-Rd-TRACT-2-Many-LA-71449/2059091930_zpid/
509 Stratford Ave,Shreveport,LA,71105,32.476788,-93.72501,3.0,$147500.0,6 hours ago,https://www.zillow.com/homedetails/509-Stratford-Ave-Shreveport-LA-71105/51341134_zpid/
249 Bess Lake Rd,Rayville,LA,71269,32.362564,-91.71844,3.0,$145000.0,20 hours ago,https://www.zillow.com/homedetails/249-Bess-Lake-Rd-Rayville-LA-71269/115179795_zpid/
57353 Cedar Ave,Slidell,LA,70461,30.26529,-89.75356,3.0,$232500.0,63 days on Zillow,https://www.zillow.com/homedetails/57353-Cedar-Ave-Slidell-LA-70461/2060349118_zpid/
70518 3rd St,Covington,LA,70433,30.459745,-90.064415,3.0,$235000.0,9 hours ago,https://www.zillow.com/homedetails/70518-3rd-St-Covington-LA-70433/96206097_zpid/
10130 Dreux Ave,New Orleans,LA,70127,30.021387,-89.96737,3.0,$299999.0,14 days on Zillow,https://www.zillow.com/homedetails/10130-Dreux-Ave-New-Orleans-LA-70127/73814909_zpid/
3842 Little Farms Dr,Zachary,LA,70791,30.641405,-91.111694,3.0,$249000.0,Open: Sun. 3-5pm,https://www.zillow.com/homedetails/3842-Little-Farms-Dr-Zachary-LA-70791/66337462_zpid/
200 Des Jardin Ave,Lafayette,LA,70507,30.301636,-92.00198,3.0,$249995.0,Open: Sun. 2-4pm,https://www.zillow.com/homedetails/200-Des-Jardin-Ave-Lafayette-LA-70507/77658855_zpid/
LOT 3 Avenue C LOT 3,Baton Rouge,LA,70807,30.53606,-91.1921,,$6000.0,11 hours ago,https://www.zillow.com/homedetails/LOT-3-Avenue-C-LOT-3-Baton-Rouge-LA-70807/2059082999_zpid/
LOT 2 Avenue C LOT 2,Baton Rouge,LA,70807,30.53606,-91.1921,,$6000.0,12 hours ago,https://www.zillow.com/homedetails/LOT-2-Avenue-C-LOT-2-Baton-Rouge-LA-70807/2059083152_zpid/
8931 Marva Dr,Shreveport,LA,71118,32.41182,-93.81402,3.0,$194000.0,11 hours ago,https://www.zillow.com/homedetails/8931-Marva-Dr-Shreveport-LA-71118/51324478_zpid/
9145 Belcaro Dr,Baton Rouge,LA,70815,30.46004,-91.08604,4.0,$250000.0,"$5,000 (Feb 16)",https://www.zillow.com/homedetails/9145-Belcaro-Dr-Baton-Rouge-LA-70815/66302238_zpid/
207 Evelyn Ave,Houma,LA,70363,29.580627,-90.684814,3.0,$167000.0,7 hours ago,https://www.zillow.com/homedetails/207-Evelyn-Ave-Houma-LA-70363/213700484_zpid/
501 Herman Carnley Rd,Deridder,LA,70634,30.80633,-93.28697,4.0,$138000.0,102 days on Zillow,https://www.zillow.com/homedetails/501-Herman-Carnley-Rd-Deridder-LA-70634/106014000_zpid/
11479 Sungate Dr,Keithville,LA,71047,32.327343,-93.882286,3.0,$265000.0,17 hours ago,https://www.zillow.com/homedetails/11479-Sungate-Dr-Keithville-LA-71047/103638862_zpid/
424 Dalzell St,Shreveport,LA,71104,32.48889,-93.73831,5.0,$139000.0,4 days on Zillow,https://www.zillow.com/homedetails/424-Dalzell-St-Shreveport-LA-71104/51335703_zpid/
3200 Southdown Mandalay Rd,Houma,LA,70360,29.577103,-90.75156,3.0,$298000.0,4 days on Zillow,https://www.zillow.com/homedetails/3200-Southdown-Mandalay-Rd-Houma-LA-70360/77765089_zpid/
4157 Kendrick Rd,Sulphur,LA,70663,30.308004,-93.40586,2.0,$89500.0,"$5,500 (Feb 10)",https://www.zillow.com/homedetails/4157-Kendrick-Rd-Sulphur-LA-70663/242817719_zpid/
317 Riviera Dr,Slidell,LA,70460,30.322603,-89.82169,4.0,$245000.0,5 days on Zillow,https://www.zillow.com/homedetails/317-Riviera-Dr-Slidell-LA-70460/96229935_zpid/
4004 Camp St,New Orleans,LA,70115,29.921946,-90.09715,3.0,$535000.0,5 days on Zillow,https://www.zillow.com/homedetails/4004-Camp-St-New-Orleans-LA-70115/73834664_zpid/
4621 Lennox Blvd,New Orleans,LA,70131,29.906328,-90.008255,3.0,$310000.0,3D Tour,https://www.zillow.com/homedetails/4621-Lennox-Blvd-New-Orleans-LA-70131/73830762_zpid/
2880 Turtle Beach Rd,Many,LA,71449,31.418236,-93.645546,2.0,$31000.0,3D Tour,https://www.zillow.com/homedetails/2880-Turtle-Beach-Rd-Many-LA-71449/232488289_zpid/
213 Mockingbird Ln,Saint Rose,LA,70087,29.944424,-90.32067,3.0,$189000.0,1 day on Zillow,https://www.zillow.com/homedetails/213-Mockingbird-Ln-Saint-Rose-LA-70087/217024274_zpid/
21339 Wilson Rd,Covington,LA,70435,30.505295,-90.047066,3.0,$290000.0,"$9,000 (Feb 10)",https://www.zillow.com/homedetails/21339-Wilson-Rd-Covington-LA-70435/96156791_zpid/
4934-36 Coliseum St,New Orleans,LA,70115,,,4.0,$550000.0,Open: Wed. 11am-1pm,https://www.zillow.com/homedetails/4934-36-Coliseum-St-New-Orleans-LA-70115/2059106456_zpid/
2418 Somersworth Dr,Shreveport,LA,71118,32.38519,-93.80237,4.0,$185500.0,18 days on Zillow,https://www.zillow.com/homedetails/2418-Somersworth-Dr-Shreveport-LA-71118/51326737_zpid/
30735 Ford Pl,Denham Springs,LA,70726,30.508108,-90.95491,4.0,$274900.0,$99 (Feb 20),https://www.zillow.com/homedetails/30735-Ford-Pl-Denham-Springs-LA-70726/110887470_zpid/
1097 Spanish Mission Trl,Lake Charles,LA,70605,30.15352,-93.232,3.0,$185000.0,"$20,000 (Feb 12)",https://www.zillow.com/homedetails/1097-Spanish-Mission-Trl-Lake-Charles-LA-70605/77607822_zpid/
7709 Denham Dr,Denham Springs,LA,70726,30.526196,-90.9593,4.0,$275000.0,21 days on Zillow,https://www.zillow.com/homedetails/7709-Denham-Dr-Denham-Springs-LA-70726/110887743_zpid/
42246 Sweeney Ln,Ponchatoula,LA,70454,30.466095,-90.400986,3.0,$100000.0,26 days on Zillow,https://www.zillow.com/homedetails/42246-Sweeney-Ln-Ponchatoula-LA-70454/77743471_zpid/
LOT 1 Simmons Rd #2,Bogalusa,LA,70427,30.81645,-89.85083,,$21000.0,18 hours ago,https://www.zillow.com/homedetails/LOT-1-Simmons-Rd-2-Bogalusa-LA-70427/2059088804_zpid/
3900 7th St,Harvey,LA,70058,29.900293,-90.08961,4.0,$219900.0,3 days on Zillow,https://www.zillow.com/homedetails/3900-7th-St-Harvey-LA-70058/73693106_zpid/
6141 River Rd,Shreveport,LA,71105,32.447002,-93.70983,4.0,$299900.0,18 hours ago,https://www.zillow.com/homedetails/6141-River-Rd-Shreveport-LA-71105/51340231_zpid/
1108 Suthon Ave,Houma,LA,70364,29.608366,-90.71991,3.0,$180000.0,73 days on Zillow,https://www.zillow.com/homedetails/1108-Suthon-Ave-Houma-LA-70364/77756447_zpid/
611 1st St,Jonesboro,LA,71251,32.244797,-92.72011,,$19900.0,1 day on Zillow,https://www.zillow.com/homedetails/611-1st-St-Jonesboro-LA-71251/235775784_zpid/
733 Edison St,Lafayette,LA,70501,30.239382,-92.03015,4.0,$129000.0,14 days on Zillow,https://www.zillow.com/homedetails/733-Edison-St-Lafayette-LA-70501/126794775_zpid/
822 Gov Nicholls St #1,New Orleans,LA,70116,29.960314,-90.05873,2.0,$523000.0,"$2,000 (Feb 8)",https://www.zillow.com/homedetails/822-Gov-Nicholls-St-1-New-Orleans-LA-70116/84447493_zpid/
2011-13 7th St,New Orleans,LA,70115,29.933456,-90.09091,4.0,$525000.0,Open: Sun. 12-2pm,https://www.zillow.com/homedetails/2011-13-7th-St-New-Orleans-LA-70115/2059115327_zpid/
1324 Griggs Rd,Calhoun,LA,71225,32.5305,-92.4038,3.0,$283000.0,6 days on Zillow,https://www.zillow.com/homedetails/1324-Griggs-Rd-Calhoun-LA-71225/92485111_zpid/
1566 Gwen Dr,Baton Rouge,LA,70815,30.462734,-91.05916,3.0,$95000.0,13 days on Zillow,https://www.zillow.com/homedetails/1566-Gwen-Dr-Baton-Rouge-LA-70815/66799116_zpid/
127 Pigeon Loop,Lafayette,LA,70508,30.158918,-92.03047,4.0,$305000.0,"$10,000 (Feb 16)",https://www.zillow.com/homedetails/127-Pigeon-Loop-Lafayette-LA-70508/77660433_zpid/
1626 Enterprise Blvd,Lake charles,LA,70601,30.21872,-93.20445,4.0,$199500.0,"$40,000 (Feb 15)",https://www.zillow.com/homedetails/1626-Enterprise-Blvd-Lake-Charles-LA-70601/242818036_zpid/
12517 Ireland Ave,Baton Rouge,LA,70814,30.482199,-91.0443,3.0,$275000.0,27 days on Zillow,https://www.zillow.com/homedetails/12517-Ireland-Ave-Baton-Rouge-LA-70814/66286327_zpid/
860 Highway 151 S,Calhoun,LA,71225,32.49222,-92.3608,3.0,$345000.0,3D Tour,https://www.zillow.com/homedetails/860-Highway-151-S-Calhoun-LA-71225/248042073_zpid/
1960 Whitehead Rd,Choudrant,LA,71227,32.60689,-92.48035,3.0,$219000.0,Open: Sun. 1-3pm,https://www.zillow.com/homedetails/1960-Whitehead-Rd-Choudrant-LA-71227/315188459_zpid/
104 Windcreek Ln,Youngsville,LA,70592,30.120241,-92.00808,4.0,$159999.0,4 days on Zillow,https://www.zillow.com/homedetails/104-Windcreek-Ln-Youngsville-LA-70592/81687903_zpid/
2358 E Laura Dr,Lake charles,LA,70611,30.34194,-93.22005,4.0,$149900.0,"$10,100 (Jan 3)",https://www.zillow.com/homedetails/2358-E-Laura-Dr-Lake-Charles-LA-70611/81673810_zpid/
139 Petite St,Lake Charles,LA,70605,30.166452,-93.22546,4.0,$219400.0,Open: Sun. 1am-3pm,https://www.zillow.com/homedetails/139-Petite-St-Lake-Charles-LA-70605/77608372_zpid/
602 Idlewood Blvd,Lafayette,LA,70506,30.193403,-92.065636,3.0,$182900.0,"$2,100 (Feb 8)",https://www.zillow.com/homedetails/602-Idlewood-Blvd-Lafayette-LA-70506/77644533_zpid/
72386 Pansy St,COVINGTON,LA,70435,30.485529,-90.04767,3.0,$139900.0,"$3,000 (Jan 11)",https://www.zillow.com/homedetails/72386-Pansy-St-Covington-LA-70435/96247738_zpid/
3928 Lolan Ct,Marrero,LA,70072,29.844402,-90.116875,3.0,$245000.0,19 hours ago,https://www.zillow.com/homedetails/3928-Lolan-Ct-Marrero-LA-70072/73700399_zpid/
0 Lakeside Loop #5,Many,LA,71449,31.343334,-93.59162,,$24500.0,1 day on Zillow,https://www.zillow.com/homedetails/0-Lakeside-Loop-5-Many-LA-71449/2059091778_zpid/
727 Barracks St APT 10,New Orleans,LA,70116,29.96304,-90.06063,1.0,$225000.0,108 days on Zillow,https://www.zillow.com/homedetails/727-Barracks-St-APT-10-New-Orleans-LA-70116/148974502_zpid/
10147 Lariat Ln,Shreveport,LA,71106,32.34127,-93.70792,4.0,$416500.0,"$3,500 (Feb 16)",https://www.zillow.com/homedetails/10147-Lariat-Ln-Shreveport-LA-71106/51322483_zpid/
1133 McDaniel Dr,Shreveport,LA,71107,32.585796,-93.81403,4.0,$242500.0,15 days on Zillow,https://www.zillow.com/homedetails/1133-McDaniel-Dr-Shreveport-LA-71107/51381164_zpid/
4430 Laurel St,New Orleans,LA,70115,29.918589,-90.10223,2.0,$599000.0,7 days on Zillow,https://www.zillow.com/homedetails/4430-Laurel-St-New-Orleans-LA-70115/2059247153_zpid/
907 McCausland St,Minden,LA,71055,32.605927,-93.2985,2.0,$87500.0,14 hours ago,https://www.zillow.com/homedetails/907-McCausland-St-Minden-LA-71055/230570910_zpid/
926 S Avenue F,Crowley,LA,70526,30.20332,-92.371605,4.0,$55000.0,"$7,000 (Jan 18)",https://www.zillow.com/homedetails/926-S-Avenue-F-Crowley-LA-70526/105988183_zpid/
111 Georgetown Loop,Lafayette,LA,70506,30.211054,-92.09876,3.0,$240000.0,151 days on Zillow,https://www.zillow.com/homedetails/111-Georgetown-Loop-Lafayette-LA-70506/77671560_zpid/
34133 Myrtle Ct,Slidell,LA,70460,30.274853,-89.83952,4.0,$270000.0,173 days on Zillow,https://www.zillow.com/homedetails/34133-Myrtle-Ct-Slidell-LA-70460/96215672_zpid/
4116 Cape Hatteras Dr,Baton Rouge,LA,70814,30.48787,-91.066086,4.0,$242500.0,5 days on Zillow,https://www.zillow.com/homedetails/4116-Cape-Hatteras-Dr-Baton-Rouge-LA-70814/66310805_zpid/
Duhon Rd,Sulphur,LA,70665,30.157276,-93.40544,,$89900.0,1 day on Zillow,https://www.zillow.com/homedetails/Duhon-Rd-Sulphur-LA-70665/2059089952_zpid/
30030 N Range Rd,Livingston,LA,70754,30.50419,-90.752594,3.0,$175000.0,3 days on Zillow,https://www.zillow.com/homedetails/30030-N-Range-Rd-Livingston-LA-70754/249353730_zpid/
3022 Parkridge St,Shreveport,LA,71108,32.447956,-93.79056,3.0,$44900.0,16 hours ago,https://www.zillow.com/homedetails/3022-Parkridge-St-Shreveport-LA-71108/51366974_zpid/
1330 Asphodel Dr,Saint Gabriel,LA,70776,30.295973,-91.11264,3.0,$219900.0,7 hours ago,https://www.zillow.com/homedetails/1330-Asphodel-Dr-Saint-Gabriel-LA-70776/115138300_zpid/
10825 Curran Blvd,New Orleans,LA,70127,30.049026,-89.97715,3.0,$95500.0,13 days on Zillow,https://www.zillow.com/homedetails/10825-Curran-Blvd-New-Orleans-LA-70127/149002165_zpid/
1403 S Flannery Rd,Baton Rouge,LA,70816,30.44464,-91.03295,4.0,$234999.0,"$5,000 (Feb 11)",https://www.zillow.com/homedetails/1403-S-Flannery-Rd-Baton-Rouge-LA-70816/66349830_zpid/
2001 Normand Ave,Bossier City,LA,71112,32.478767,-93.66135,3.0,$140000.0,21 hours ago,https://www.zillow.com/homedetails/2001-Normand-Ave-Bossier-City-LA-71112/109797671_zpid/
1042 N Lane Dr,Shreveport,LA,71107,32.588795,-93.826744,4.0,$110000.0,"$40,000 (Feb 13)",https://www.zillow.com/homedetails/1042-N-Lane-Dr-Shreveport-LA-71107/51391204_zpid/
211 S William Dr,Lafayette,LA,70506,30.188187,-92.06969,3.0,$179000.0,15 hours ago,https://www.zillow.com/homedetails/211-S-William-Dr-Lafayette-LA-70506/123432194_zpid/
82300 Highway 1080,Folsom,LA,70437,30.629248,-90.160416,3.0,$279900.0,22 hours ago,https://www.zillow.com/homedetails/82300-Highway-1080-Folsom-LA-70437/96179721_zpid/
4841 Wabash St APT 10,Metairie,LA,70001,29.998508,-90.18924,2.0,$149900.0,9 hours ago,https://www.zillow.com/homedetails/4841-Wabash-St-APT-10-Metairie-LA-70001/2065911285_zpid/
3618 Danneel St,New Orleans,LA,70115,29.930984,-90.09561,4.0,$235000.0,19 days on Zillow,https://www.zillow.com/homedetails/3618-Danneel-St-New-Orleans-LA-70115/2059541988_zpid/
13737 Lovett Rd,Baton Rouge,LA,70818,30.52037,-91.03686,4.0,$465000.0,4 days on Zillow,https://www.zillow.com/homedetails/13737-Lovett-Rd-Baton-Rouge-LA-70818/66355761_zpid/
2320 6th St,New Orleans,LA,70115,29.93626,-90.09216,3.0,$260000.0,26 days on Zillow,https://www.zillow.com/homedetails/2320-6th-St-New-Orleans-LA-70115/110379804_zpid/
41266 Knollwood Dr,Sorrento,LA,70778,30.157028,-90.914024,4.0,$325000.0,1 day on Zillow,https://www.zillow.com/homedetails/41266-Knollwood-Dr-Sorrento-LA-70778/81892800_zpid/
531 Southwood Dr,Bossier City,LA,71111,32.571327,-93.72809,4.0,$239500.0,6 days on Zillow,https://www.zillow.com/homedetails/531-Southwood-Dr-Bossier-City-LA-71111/109795473_zpid/
2640 73rd Ave,Baton Rouge,LA,70807,30.51513,-91.1648,2.0,$8500.0,2 days on Zillow,https://www.zillow.com/homedetails/2640-73rd-Ave-Baton-Rouge-LA-70807/66265194_zpid/
1500 Lesseps St,New Orleans,LA,70117,29.96919,-90.03154,2.0,$150000.0,22 days on Zillow,https://www.zillow.com/homedetails/1500-Lesseps-St-New-Orleans-LA-70117/84461147_zpid/
1519 Shreveport Rd,Minden,LA,71055,32.607548,-93.310715,3.0,$250000.0,4 days on Zillow,https://www.zillow.com/homedetails/1519-Shreveport-Rd-Minden-LA-71055/230571995_zpid/
4315 Genoa St,New Orleans,LA,70129,30.067627,-89.815895,3.0,$279900.0,"$10,000 (Feb 10)",https://www.zillow.com/homedetails/4315-Genoa-St-New-Orleans-LA-70129/73824921_zpid/
117 Stacy Blvd,Monroe,LA,71202,32.438595,-92.0939,3.0,$65000.0,7 hours ago,https://www.zillow.com/homedetails/117-Stacy-Blvd-Monroe-LA-71202/92491759_zpid/
1331 Hudson Creek Rd,Dry Prong,LA,71423,31.466366,-92.532326,3.0,$249900.0,16 hours ago,https://www.zillow.com/homedetails/1331-Hudson-Creek-Rd-Dry-Prong-LA-71423/115128656_zpid/
1335 Tall Sky Dr,Lake charles,LA,70607,30.070366,-93.19891,3.0,$189000.0,7 days on Zillow,https://www.zillow.com/homedetails/1335-Tall-Sky-Dr-Lake-Charles-LA-70607/91781400_zpid/
5116 Alleman Rd #A,New Iberia,LA,70560,30.003887,-91.93424,3.0,$150000.0,4 days on Zillow,https://www.zillow.com/homedetails/5116-Alleman-Rd-A-New-Iberia-LA-70560/2059114045_zpid/
2557 Weatherly Pl,Marrero,LA,70072,29.860052,-90.102806,3.0,$269000.0,4 days on Zillow,https://www.zillow.com/homedetails/2557-Weatherly-Pl-Marrero-LA-70072/103916938_zpid/
266 Gemstone Dr,Franklinton,LA,70438,30.8331,-90.2196,12.0,$249000.0,81 days on Zillow,https://www.zillow.com/homedetails/266-Gemstone-Dr-Franklinton-LA-70438/2104286828_zpid/
113 Rue Paon,Youngsville,LA,70592,30.133133,-92.01417,3.0,$210000.0,8 hours ago,https://www.zillow.com/homedetails/113-Rue-Paon-Youngsville-LA-70592/81689598_zpid/
407 Atmos Energy Dr,Lafayette,LA,70506,,,4.0,$350000.0,3 days on Zillow,https://www.zillow.com/homedetails/407-Atmos-Energy-Dr-Lafayette-LA-70506/2078273469_zpid/
2319 Terpsichore St,New Orleans,LA,70113,29.943068,-90.08438,3.0,$260000.0,Open: Sun. 1am-3pm,https://www.zillow.com/homedetails/2319-Terpsichore-St-New-Orleans-LA-70113/2059126111_zpid/
106 Lilly St,Lafayette,LA,70501,30.221724,-91.99925,2.0,$24900.0,25 days on Zillow,https://www.zillow.com/homedetails/106-Lilly-St-Lafayette-LA-70501/126791179_zpid/
108 Susan Dr,Pineville,LA,71360,31.399002,-92.468254,4.0,$236000.0,4 days on Zillow,https://www.zillow.com/homedetails/108-Susan-Dr-Pineville-LA-71360/77708330_zpid/
18520 Sisters Rd,Ponchatoula,LA,70454,30.458204,-90.42312,4.0,$197000.0,12 days on Zillow,https://www.zillow.com/homedetails/18520-Sisters-Rd-Ponchatoula-LA-70454/102691535_zpid/
26122 Willow Wood St,Denham Springs,LA,70726,30.44723,-90.866844,4.0,$248500.0,17 hours ago,https://www.zillow.com/homedetails/26122-Willow-Wood-St-Denham-Springs-LA-70726/210294240_zpid/
122 Willow D St,Larose,LA,70373,29.571878,-90.388176,3.0,$39900.0,5 days on Zillow,https://www.zillow.com/homedetails/122-Willow-D-St-Larose-LA-70373/119443688_zpid/
2900 N 12th St,West Monroe,LA,71291,32.530277,-92.153145,3.0,$193000.0,20 hours ago,https://www.zillow.com/homedetails/2900-N-12th-St-West-Monroe-LA-71291/92475754_zpid/
4853 Camelia St,New Orleans,LA,70126,30.01933,-90.0039,3.0,$169000.0,2 days on Zillow,https://www.zillow.com/homedetails/4853-Camelia-St-New-Orleans-LA-70126/149032270_zpid/
1837-39 Touro St,New Orleans,LA,70116,,,4.0,$189000.0,"$8,000 (Jan 26)",https://www.zillow.com/homedetails/1837-39-Touro-St-New-Orleans-LA-70116/2065983934_zpid/
4305 Clay St,Metairie,LA,70001,29.979872,-90.175385,3.0,$265000.0,18 hours ago,https://www.zillow.com/homedetails/4305-Clay-St-Metairie-LA-70001/73729572_zpid/
408 Harrell Dr,Lafayette,LA,70503,30.17832,-92.062035,4.0,$289900.0,6 hours ago,https://www.zillow.com/homedetails/408-Harrell-Dr-Lafayette-LA-70503/77638038_zpid/
727 Brantford Dr,Port Allen,LA,70767,30.458897,-91.27451,4.0,$334900.0,11 hours ago,https://www.zillow.com/homedetails/727-Brantford-Dr-Port-Allen-LA-70767/103935896_zpid/
356 Gary K St,Pineville,LA,71360,31.28891,-92.384766,4.0,$243000.0,15 hours ago,https://www.zillow.com/homedetails/356-Gary-K-St-Pineville-LA-71360/77712565_zpid/
3316 E Admiral Doyle Dr,New Iberia,LA,70560,29.968922,-91.78915,3.0,$240000.0,4 days on Zillow,https://www.zillow.com/homedetails/3316-E-Admiral-Doyle-Dr-New-Iberia-LA-70560/77623867_zpid/
4713 Cartier Ave,New Orleans,LA,70122,30.006346,-90.07869,4.0,$619000.0,6 days on Zillow,https://www.zillow.com/homedetails/4713-Cartier-Ave-New-Orleans-LA-70122/73793148_zpid/
10276 Arnold Rd,Denham Springs,LA,70726,30.539022,-90.91603,3.0,$199900.0,"$25,000 (Feb 16)",https://www.zillow.com/homedetails/10276-Arnold-Rd-Denham-Springs-LA-70726/110887915_zpid/
918 Harling Ln,Natchitoches,LA,71457,31.68505,-93.079575,4.0,$310000.0,1 day on Zillow,https://www.zillow.com/homedetails/918-Harling-Ln-Natchitoches-LA-71457/106102283_zpid/
Speech St,Rayne,LA,70578,,,,$96000.0,1 day on Zillow,https://www.zillow.com/homedetails/Speech-St-Rayne-LA-70578/2059092943_zpid/
2613 Dawson Ave,Kenner,LA,70062,30.002419,-90.25558,6.0,$297000.0,1 day on Zillow,https://www.zillow.com/homedetails/2613-Dawson-Ave-Kenner-LA-70062/304206604_zpid/
1245 Madrid Ave,Saint Gabriel,LA,70776,30.293877,-91.10962,3.0,$257000.0,6 days on Zillow,https://www.zillow.com/homedetails/1245-Madrid-Ave-Saint-Gabriel-LA-70776/119394805_zpid/
3446 Seracedar Dr,Baton Rouge,LA,70816,30.41978,-91.06605,4.0,$235000.0,14 hours ago,https://www.zillow.com/homedetails/3446-Seracedar-Dr-Baton-Rouge-LA-70816/66300842_zpid/
23264 Conifer Dr,Denham Springs,LA,70726,30.40876,-90.859,4.0,$189900.0,"$10,000 (Feb 16)",https://www.zillow.com/homedetails/23264-Conifer-Dr-Denham-Springs-LA-70726/120281479_zpid/
7425 Vice President Dr,Baton Rouge,LA,70817,30.38398,-91.01275,3.0,$235000.0,4 days on Zillow,https://www.zillow.com/homedetails/7425-Vice-President-Dr-Baton-Rouge-LA-70817/66360357_zpid/
1102 Rue Cannes,Hammond,LA,70403,30.48929,-90.486244,4.0,$278000.0,3D Tour,https://www.zillow.com/homedetails/1102-Rue-Cannes-Hammond-LA-70403/77740519_zpid/
203 Ixworth Ave,Bossier City,LA,71111,32.57419,-93.67527,3.0,$285000.0,4 days on Zillow,https://www.zillow.com/homedetails/203-Ixworth-Ave-Bossier-City-LA-71111/109805765_zpid/
204 S Pleasant Ave,Gonzales,LA,70737,30.231972,-90.92252,3.0,$72500.0,17 hours ago,https://www.zillow.com/homedetails/204-S-Pleasant-Ave-Gonzales-LA-70737/1456657_zpid/
6935 Landmor Dr,Greenwell Springs,LA,70739,30.517406,-90.99603,4.0,$315000.0,20 hours ago,https://www.zillow.com/homedetails/6935-Landmor-Dr-Greenwell-Springs-LA-70739/66357049_zpid/
250 Blue Crane Dr #1,Slidell,LA,70461,30.278257,-89.70081,4.0,$300000.0,"$50,000 (Dec 16)",https://www.zillow.com/homedetails/250-Blue-Crane-Dr-1-Slidell-LA-70461/96231439_zpid/
124 Ambiance Cir,Lafayette,LA,70508,30.136265,-92.03058,3.0,$1.0,13 days on Zillow,https://www.zillow.com/homedetails/124-Ambiance-Cir-Lafayette-LA-70508/77685738_zpid/
39083 Old Bayou Ave,Gonzales,LA,70737,30.227428,-90.95146,4.0,$315000.0,Open: Sun. 2-4pm,https://www.zillow.com/homedetails/39083-Old-Bayou-Ave-Gonzales-LA-70737/72222274_zpid/
607 Evangeline Dr,Lafayette,LA,70501,30.229876,-92.03004,4.0,$170000.0,"$19,900 (Feb 13)",https://www.zillow.com/homedetails/607-Evangeline-Dr-Lafayette-LA-70501/77640717_zpid/
105 Tutty Loop,Houma,LA,70363,29.589605,-90.65923,3.0,$299000.0,73 days on Zillow,https://www.zillow.com/homedetails/105-Tutty-Loop-Houma-LA-70363/77753415_zpid/
2002 Woodell Ln,Westlake,LA,70669,30.28596,-93.27455,4.0,$235000.0,"$10,000 (Jan 17)",https://www.zillow.com/homedetails/2002-Woodell-Ln-Westlake-LA-70669/81665401_zpid/
2104 Benefit St,New Orleans,LA,70122,29.99051,-90.06083,4.0,$199999.0,4 days on Zillow,https://www.zillow.com/homedetails/2104-Benefit-St-New-Orleans-LA-70122/73790399_zpid/
43164 Bayside Ct,Prairieville,LA,70769,30.33569,-90.9439,4.0,$339000.0,Open: Sun. 1-3pm,https://www.zillow.com/homedetails/43164-Bayside-Ct-Prairieville-LA-70769/81894817_zpid/
14752 Brightview Ct,Baton Rouge,LA,70819,30.456276,-91.02553,3.0,$185000.0,4 days on Zillow,https://www.zillow.com/homedetails/14752-Brightview-Ct-Baton-Rouge-LA-70819/66344546_zpid/
118 Iroquois Dr,Abita Springs,LA,70420,30.460264,-90.05385,4.0,$255000.0,162 days on Zillow,https://www.zillow.com/homedetails/118-Iroquois-Dr-Abita-Springs-LA-70420/96182705_zpid/
114 Barnet Ct,Lafayette,LA,70507,30.309456,-92.01427,3.0,$190000.0,4 days on Zillow,https://www.zillow.com/homedetails/114-Barnet-Ct-Lafayette-LA-70507/294836368_zpid/
11932 Lake Lery Ave,Baton Rouge,LA,70816,30.411875,-91.04873,4.0,$275000.0,32 days on Zillow,https://www.zillow.com/homedetails/11932-Lake-Lery-Ave-Baton-Rouge-LA-70816/66364331_zpid/
211 Ridgeview Dr,Lafayette,LA,70507,30.275253,-92.00415,3.0,$130000.0,19 hours ago,https://www.zillow.com/homedetails/211-Ridgeview-Dr-Lafayette-LA-70507/77654202_zpid/
446 Bryan St,Denham Springs,LA,70726,30.479794,-90.94624,3.0,$115000.0,22 days on Zillow,https://www.zillow.com/homedetails/446-Bryan-St-Denham-Springs-LA-70726/110918458_zpid/
LOT 2 Simmons Rd,Bogalusa,LA,70427,30.81645,-89.85083,,$110000.0,18 hours ago,https://www.zillow.com/homedetails/LOT-2-Simmons-Rd-Bogalusa-LA-70427/2059088758_zpid/
149 Partridge St,Covington,LA,70433,30.414026,-90.06215,3.0,$300000.0,4 days on Zillow,https://www.zillow.com/homedetails/149-Partridge-St-Covington-LA-70433/96166485_zpid/
931 Gov Nicholls St #1A,New Orleans,LA,70116,29.960314,-90.05873,1.0,$199900.0,"$25,000 (Dec 21)",https://www.zillow.com/homedetails/931-Gov-Nicholls-St-1A-New-Orleans-LA-70116/148974722_zpid/
151 Rue Acadian,Slidell,LA,70461,30.276499,-89.72564,4.0,$309000.0,19 days on Zillow,https://www.zillow.com/homedetails/151-Rue-Acadian-Slidell-LA-70461/96189224_zpid/
204 Stutes Rd,Duson,LA,70529,30.18884,-92.129005,3.0,$289000.0,28 days on Zillow,https://www.zillow.com/homedetails/204-Stutes-Rd-Duson-LA-70529/123441390_zpid/
461 Grand Oaks Dr,Shreveport,LA,71106,32.34331,-93.71049,3.0,$315000.0,4 days on Zillow,https://www.zillow.com/homedetails/461-Grand-Oaks-Dr-Shreveport-LA-71106/66803807_zpid/
108 Washitta Rd,Lafayette,LA,70501,30.21779,-91.98589,3.0,$199500.0,3D Tour,https://www.zillow.com/homedetails/108-Washitta-Rd-Lafayette-LA-70501/77643840_zpid/
532 Bateleur Way,Covington,LA,70435,30.525928,-90.22312,3.0,$275000.0,6 days on Zillow,https://www.zillow.com/homedetails/532-Bateleur-Way-Covington-LA-70435/190881171_zpid/
5959 Bentley Dr,Baker,LA,70714,30.594776,-91.130264,3.0,$295000.0,"$3,000 (Feb 14)",https://www.zillow.com/homedetails/5959-Bentley-Dr-Baker-LA-70714/66319798_zpid/
192 Treasure Dr,Raceland,LA,70394,29.691996,-90.6191,3.0,$239900.0,16 hours ago,https://www.zillow.com/homedetails/192-Treasure-Dr-Raceland-LA-70394/300250307_zpid/
62262 Simmons Rd #2,Bogalusa,LA,70427,30.819386,-89.846825,,$130000.0,18 hours ago,https://www.zillow.com/homedetails/62262-Simmons-Rd-2-Bogalusa-LA-70427/106188828_zpid/
9070 Reserve Oak Ave,Zachary,LA,70791,30.65939,-91.11041,4.0,$239000.0,1 day on Zillow,https://www.zillow.com/homedetails/9070-Reserve-Oak-Ave-Zachary-LA-70791/120559208_zpid/
302 Cotton Trace Dr,Monroe,LA,71203,32.46374,-92.086525,4.0,$410000.0,12 hours ago,https://www.zillow.com/homedetails/302-Cotton-Trace-Dr-Monroe-LA-71203/251404441_zpid/
765 Woodmont Pl,Shreveport,LA,71108,32.428165,-93.77915,3.0,$124500.0,225 days on Zillow,https://www.zillow.com/homedetails/765-Woodmont-Pl-Shreveport-LA-71108/51373788_zpid/
301 Thomas Jefferson Dr,Leesville,LA,71446,31.148436,-93.262,4.0,$99000.0,4 days on Zillow,https://www.zillow.com/homedetails/301-Thomas-Jefferson-Dr-Leesville-LA-71446/77776851_zpid/
2376 Fawn Rdg,Lake charles,LA,70611,30.300314,-93.24226,4.0,$589900.0,20 days on Zillow,https://www.zillow.com/homedetails/2376-Fawn-Rdg-Lake-Charles-LA-70611/81579976_zpid/
0 Highway 1187,Mansura,LA,71350,,,0.0,$47500.0,15 hours ago,https://www.zillow.com/homedetails/0-Highway-1187-Mansura-LA-71350/2082943761_zpid/
3111 Midway St,Shreveport,LA,71109,32.47072,-93.786995,,$13000.0,19 hours ago,https://www.zillow.com/homedetails/3111-Midway-St-Shreveport-LA-71109/103657021_zpid/
17189 Kayla Dr,Ponchatoula,LA,70454,,,,$44900.0,20 hours ago,https://www.zillow.com/homedetails/17189-Kayla-Dr-Ponchatoula-LA-70454/2095310759_zpid/
4815 Greenforest Dr,Baton Rouge,LA,70814,30.495152,-91.0483,3.0,$275000.0,151 days on Zillow,https://www.zillow.com/homedetails/4815-Greenforest-Dr-Baton-Rouge-LA-70814/66350478_zpid/
7418 James Chunn Rd,Bastrop,LA,71220,32.71071,-91.94479,3.0,$42750.0,"$2,250 (Feb 8)",https://www.zillow.com/homedetails/7418-James-Chunn-Rd-Bastrop-LA-71220/115152914_zpid/
33813 Natures Way,Walker,LA,70785,30.564411,-90.87403,3.0,$255000.0,8 hours ago,https://www.zillow.com/homedetails/33813-Natures-Way-Walker-LA-70785/110894559_zpid/
6131 Land O Trees St,Shreveport,LA,71119,32.469746,-93.85581,3.0,$189000.0,3 days on Zillow,https://www.zillow.com/homedetails/6131-Land-O-Trees-St-Shreveport-LA-71119/248586162_zpid/
523 Penick St,Pineville,LA,71360,31.329592,-92.41868,2.0,$98500.0,13 hours ago,https://www.zillow.com/homedetails/523-Penick-St-Pineville-LA-71360/77699489_zpid/
1061 Camp St APT D,New Orleans,LA,70130,29.942087,-90.07165,2.0,$269000.0,29 days on Zillow,https://www.zillow.com/homedetails/1061-Camp-St-APT-D-New-Orleans-LA-70130/110377683_zpid/
1434 Sharlo Ave,Baton Rouge,LA,70820,30.39044,-91.18453,3.0,$160000.0,6 days on Zillow,https://www.zillow.com/homedetails/1434-Sharlo-Ave-Baton-Rouge-LA-70820/66377334_zpid/
101 Cane Creek Dr,Broussard,LA,70518,30.113537,-91.97337,4.0,$335000.0,10 days on Zillow,https://www.zillow.com/homedetails/101-Cane-Creek-Dr-Broussard-LA-70518/126835233_zpid/
5456 Canal Blvd,New Orleans,LA,70124,29.988985,-90.11036,4.0,$515000.0,"$10,000 (Jan 28)",https://www.zillow.com/homedetails/5456-Canal-Blvd-New-Orleans-LA-70124/148964519_zpid/
100 Teal Ln APT 56,Lafayette,LA,70507,30.27565,-91.97824,4.0,$130000.0,43 days on Zillow,https://www.zillow.com/homedetails/100-Teal-Ln-APT-56-Lafayette-LA-70507/110912251_zpid/
410 Saint Mark Ave,Opelousas,LA,70570,30.532888,-92.15989,3.0,$89000.0,4 days on Zillow,https://www.zillow.com/homedetails/410-Saint-Mark-Ave-Opelousas-LA-70570/315406110_zpid/
6120 Ambleside St,Shreveport,LA,71129,32.43702,-93.86503,3.0,$195000.0,2 days on Zillow,https://www.zillow.com/homedetails/6120-Ambleside-St-Shreveport-LA-71129/2142946021_zpid/
107 Field Dr,Hammond,LA,70403,30.487724,-90.47763,3.0,$143900.0,10 days on Zillow,https://www.zillow.com/homedetails/107-Field-Dr-Hammond-LA-70403/213660124_zpid/
166 Ramses Ln,Shreveport,LA,71105,32.4517,-93.71292,3.0,$239000.0,"$7,000 (Feb 17)",https://www.zillow.com/homedetails/166-Ramses-Ln-Shreveport-LA-71105/54850278_zpid/
15112 Haynes Rd,Maurepas,LA,70449,30.286789,-90.708374,3.0,$200000.0,49 days on Zillow,https://www.zillow.com/homedetails/15112-Haynes-Rd-Maurepas-LA-70449/110890065_zpid/
118 Patton Dr,West Monroe,LA,71291,32.536446,-92.15999,3.0,$96000.0,21 hours ago,https://www.zillow.com/homedetails/118-Patton-Dr-West-Monroe-LA-71291/92492061_zpid/
807 S Morgan Ave,Broussard,LA,70518,30.140297,-91.96454,6.0,$269000.0,5 days on Zillow,https://www.zillow.com/homedetails/807-S-Morgan-Ave-Broussard-LA-70518/77636588_zpid/
146 Doucet Dr,Golden Meadow,LA,70357,29.375874,-90.26135,2.0,$85000.0,12 hours ago,https://www.zillow.com/homedetails/146-Doucet-Dr-Golden-Meadow-LA-70357/119486130_zpid/
104 Tortoise Ln,Broussard,LA,70518,30.160145,-91.94717,4.0,$388000.0,"$2,000 (Jan 24)",https://www.zillow.com/homedetails/104-Tortoise-Ln-Broussard-LA-70518/249653658_zpid/
17159 Fountainbleau Dr,Prairieville,LA,70769,30.317965,-90.93038,3.0,$299900.0,"$5,100 (Feb 16)",https://www.zillow.com/homedetails/17159-Fountainbleau-Dr-Prairieville-LA-70769/1468144_zpid/
821 Royal St #5,New Orleans,LA,70116,29.959297,-90.063705,1.0,$398000.0,11 days on Zillow,https://www.zillow.com/homedetails/821-Royal-St-5-New-Orleans-LA-70116/2080096227_zpid/
57575 Bar St,Slidell,LA,70461,30.267986,-89.73989,3.0,$259000.0,5 days on Zillow,https://www.zillow.com/homedetails/57575-Bar-St-Slidell-LA-70461/333195458_zpid/
733 Janice Dr,Sulphur,LA,70663,30.232782,-93.31193,4.0,$268500.0,518 days on Zillow,https://www.zillow.com/homedetails/733-Janice-Dr-Sulphur-LA-70663/77610170_zpid/
2700 Montesquieu St,Chalmette,LA,70043,29.94414,-89.96441,2.0,$280000.0,12 days on Zillow,https://www.zillow.com/homedetails/2700-Montesquieu-St-Chalmette-LA-70043/115184225_zpid/
320 Saint Charles St,Lafayette,LA,70501,30.22746,-92.00644,3.0,$162000.0,"$13,000 (Jan 30)",https://www.zillow.com/homedetails/320-Saint-Charles-St-Lafayette-LA-70501/77658342_zpid/
1124 S Bienville Ave,Gonzales,LA,70737,30.228899,-90.91071,3.0,$203900.0,13 hours ago,https://www.zillow.com/homedetails/1124-S-Bienville-Ave-Gonzales-LA-70737/2059084387_zpid/
414 S Iberville Ave,Gonzales,LA,70737,30.230112,-90.91114,3.0,$203900.0,13 hours ago,https://www.zillow.com/homedetails/414-S-Iberville-Ave-Gonzales-LA-70737/333791989_zpid/
410 S Iberville Ave,Gonzales,LA,70737,30.22868,-90.91181,3.0,$203900.0,13 hours ago,https://www.zillow.com/homedetails/410-S-Iberville-Ave-Gonzales-LA-70737/2059308692_zpid/
400 S Iberville Ave,Gonzales,LA,70737,30.22868,-90.91181,3.0,$203900.0,14 hours ago,https://www.zillow.com/homedetails/400-S-Iberville-Ave-Gonzales-LA-70737/2059308696_zpid/
2801 Saint Charles Ave UNIT 109D,New Orleans,LA,70115,29.931137,-90.08607,2.0,$369500.0,"$5,500 (Jan 9)",https://www.zillow.com/homedetails/2801-Saint-Charles-Ave-UNIT-109D-New-Orleans-LA-70115/2063142866_zpid/
10365 Fountain Ln,Denham Springs,LA,70726,30.478392,-90.91324,3.0,$290000.0,3 days on Zillow,https://www.zillow.com/homedetails/10365-Fountain-Ln-Denham-Springs-LA-70726/317116316_zpid/
6917 Boyance Rd,New Iberia,LA,70560,30.068495,-91.91034,2.0,$45500.0,7 hours ago,https://www.zillow.com/homedetails/6917-Boyance-Rd-New-Iberia-LA-70560/77619935_zpid/
5314 Bienville Ave,Shreveport,LA,71108,32.4616,-93.77267,2.0,$43500.0,16 hours ago,https://www.zillow.com/homedetails/5314-Bienville-Ave-Shreveport-LA-71108/51360020_zpid/
20360 Helenbirg Rd,Covington,LA,70433,30.443127,-90.059494,3.0,$284000.0,5 days on Zillow,https://www.zillow.com/homedetails/20360-Helenbirg-Rd-Covington-LA-70433/245301640_zpid/
1418 Dauphine St UNIT 3,New Orleans,LA,70116,29.964642,-90.061485,2.0,$425000.0,Open: Sun. 12-2pm,https://www.zillow.com/homedetails/1418-Dauphine-St-UNIT-3-New-Orleans-LA-70116/2059136730_zpid/
11247 Winrock Dr,New Orleans,LA,70128,30.036772,-89.95703,4.0,$349000.0,"$76,000 (Feb 2)",https://www.zillow.com/homedetails/11247-Winrock-Dr-New-Orleans-LA-70128/114009896_zpid/
223 Maxine Blvd,Gray,LA,70359,29.680387,-90.73621,4.0,$300000.0,1 day on Zillow,https://www.zillow.com/homedetails/223-Maxine-Blvd-Gray-LA-70359/119431502_zpid/
13323 Buckley Ave,Baton Rouge,LA,70816,30.412598,-91.03061,4.0,$345000.0,13 days on Zillow,https://www.zillow.com/homedetails/13323-Buckley-Ave-Baton-Rouge-LA-70816/66352488_zpid/
2225 Bonvie Dr,Sulphur,LA,70665,30.171707,-93.42196,4.0,$299900.0,"$29,100 (Dec 12)",https://www.zillow.com/homedetails/2225-Bonvie-Dr-Sulphur-LA-70665/77598412_zpid/
8718 Grand View Dr,Baton Rouge,LA,70809,30.370802,-91.03826,4.0,$465000.0,21 hours ago,https://www.zillow.com/homedetails/8718-Grand-View-Dr-Baton-Rouge-LA-70809/66805370_zpid/
2907 Southern Ridge Rd,Lake Charles,LA,70607,30.132927,-93.17326,3.0,$150000.0,"$14,900 (Feb 14)",https://www.zillow.com/homedetails/2907-Southern-Ridge-Rd-Lake-Charles-LA-70607/81671299_zpid/
(undisclosed Address),Shreveport,LA,71107,,,,$75000.0,15 hours ago,https://www.zillow.com/homedetails/Shreveport-LA-71107/103633775_zpid/
6746 N Lakeshore Dr,Shreveport,LA,71107,32.529457,-93.89082,,$75000.0,16 hours ago,https://www.zillow.com/homedetails/6746-N-Lakeshore-Dr-Shreveport-LA-71107/51389907_zpid/
12412 Merlin Ave,Baton Rouge,LA,70816,30.424871,-91.04499,3.0,$309900.0,13 hours ago,https://www.zillow.com/homedetails/12412-Merlin-Ave-Baton-Rouge-LA-70816/66301612_zpid/
32336 Patti Anne Dr,Denham Springs,LA,70726,30.536085,-90.90128,3.0,$239900.0,Video Walkthrough,https://www.zillow.com/homedetails/32336-Patti-Anne-Dr-Denham-Springs-LA-70726/110896006_zpid/
506 Gaston Cir,Bossier City,LA,71112,32.47025,-93.65912,3.0,$252900.0,4 days on Zillow,https://www.zillow.com/homedetails/506-Gaston-Cir-Bossier-City-LA-71112/109802687_zpid/
418 S Iberville Ave,Gonzales,LA,70737,30.230017,-90.911125,3.0,$203900.0,13 hours ago,https://www.zillow.com/homedetails/418-S-Iberville-Ave-Gonzales-LA-70737/333791990_zpid/
7041 Lakecrest Dr,Zachary,LA,70791,30.671942,-91.16942,3.0,$295000.0,Open: Sun. 2-4pm,https://www.zillow.com/homedetails/7041-Lakecrest-Dr-Zachary-LA-70791/66807708_zpid/
119 Freddie Fruge Rd,Eunice,LA,70535,30.5076,-92.34091,3.0,$169000.0,15 hours ago,https://www.zillow.com/homedetails/119-Freddie-Fruge-Rd-Eunice-LA-70535/2144284178_zpid/
111 Fischer Dr,Pearl River,LA,70452,30.329334,-89.73068,4.0,$269000.0,Open: Sat. 11:30am-1:30pm,https://www.zillow.com/homedetails/111-Fischer-Dr-Pearl-River-LA-70452/2137490875_zpid/
4440 Boulonnais Ave,Baton Rouge,LA,70820,,,4.0,$471500.0,Open: Sun. 2-4pm,https://www.zillow.com/homedetails/4440-Boulonnais-Ave-Baton-Rouge-LA-70820/2061985031_zpid/
633 Rodney Dr,Baton Rouge,LA,70808,30.382305,-91.12765,5.0,$398000.0,"$19,900 (Feb 3)",https://www.zillow.com/homedetails/633-Rodney-Dr-Baton-Rouge-LA-70808/66286733_zpid/
23679 Windy Rdg,Denham Springs,LA,70726,30.414686,-90.9042,3.0,$244900.0,10 hours ago,https://www.zillow.com/homedetails/23679-Windy-Rdg-Denham-Springs-LA-70726/110892691_zpid/
1709 Green Acres Rd,Metairie,LA,70003,29.990826,-90.19509,3.0,$250000.0,3 days on Zillow,https://www.zillow.com/homedetails/1709-Green-Acres-Rd-Metairie-LA-70003/117973432_zpid/
7774 Broker Ave,Baton Rouge,LA,70817,30.379885,-91.01455,3.0,$219000.0,"$6,000 (Feb 9)",https://www.zillow.com/homedetails/7774-Broker-Ave-Baton-Rouge-LA-70817/2059772770_zpid/
8962 Cefalu Dr,Baton Rouge,LA,70811,30.532494,-91.128235,4.0,$239000.0,8 days on Zillow,https://www.zillow.com/homedetails/8962-Cefalu-Dr-Baton-Rouge-LA-70811/66322988_zpid/
Jordan Ln,Hackberry,LA,70645,29.9912,-93.3576,,$52000.0,17 hours ago,https://www.zillow.com/homedetails/Jordan-Ln-Hackberry-LA-70645/2112843949_zpid/
2103 Warwick St,New Iberia,LA,70563,30.040684,-91.76866,4.0,$390000.0,1 day on Zillow,https://www.zillow.com/homedetails/2103-Warwick-St-New-Iberia-LA-70563/77625490_zpid/
319 Allen St,New Iberia,LA,70563,30.013088,-91.81402,3.0,$189000.0,20 days on Zillow,https://www.zillow.com/homedetails/319-Allen-St-New-Iberia-LA-70563/77632475_zpid/
36385 Reinninger Rd,Denham Springs,LA,70706,30.594706,-90.89075,3.0,$218000.0,13 hours ago,https://www.zillow.com/homedetails/36385-Reinninger-Rd-Denham-Springs-LA-70706/110883572_zpid/
3505 Volpe Dr,Chalmette,LA,70043,29.946758,-89.94556,3.0,$199900.0,5 days on Zillow,https://www.zillow.com/homedetails/3505-Volpe-Dr-Chalmette-LA-70043/119754632_zpid/
411 Parlange Dr,Pearl River,LA,70452,30.324522,-89.728874,4.0,$299000.0,"$8,000 (Feb 17)",https://www.zillow.com/homedetails/411-Parlange-Dr-Pearl-River-LA-70452/96162829_zpid/
356 Ray Shuff Rd,Kinder,LA,70648,30.538239,-92.86815,3.0,$240000.0,22 days on Zillow,https://www.zillow.com/homedetails/356-Ray-Shuff-Rd-Kinder-LA-70648/236313813_zpid/
2513 Margie St,Metairie,LA,70003,29.9989,-90.204,3.0,$255000.0,33 days on Zillow,https://www.zillow.com/homedetails/2513-Margie-St-Metairie-LA-70003/73731808_zpid/
328 S Iberville Ave,Gonzales,LA,70737,30.22868,-90.91181,3.0,$203900.0,14 hours ago,https://www.zillow.com/homedetails/328-S-Iberville-Ave-Gonzales-LA-70737/2059308694_zpid/
324 S Iberville Ave,Gonzales,LA,70737,30.230873,-90.911644,3.0,$203900.0,14 hours ago,https://www.zillow.com/homedetails/324-S-Iberville-Ave-Gonzales-LA-70737/333791987_zpid/
108 Southfork Dr,Youngsville,LA,70592,30.12284,-92.00128,3.0,$184999.0,29 days on Zillow,https://www.zillow.com/homedetails/108-Southfork-Dr-Youngsville-LA-70592/114247741_zpid/
1025 N Filmore St,Covington,LA,70433,30.48878,-90.10291,3.0,$17000.0,11 hours ago,https://www.zillow.com/homedetails/1025-N-Filmore-St-Covington-LA-70433/96222808_zpid/
4507 39th St,Zachary,LA,70791,30.649899,-91.16407,3.0,$215000.0,19 hours ago,https://www.zillow.com/homedetails/4507-39th-St-Zachary-LA-70791/66339727_zpid/
610 Tchoupitoulas St APT C,New Orleans,LA,70130,29.947401,-90.06707,1.0,$235000.0,"$264,000 (Feb 7)",https://www.zillow.com/homedetails/610-Tchoupitoulas-St-APT-C-New-Orleans-LA-70130/84441062_zpid/
1525 Maplewood Dr,Harvey,LA,70058,29.886345,-90.06552,3.0,$249900.0,14 hours ago,https://www.zillow.com/homedetails/1525-Maplewood-Dr-Harvey-LA-70058/123433608_zpid/
1506 Moss St,Lake Charles,LA,70601,30.220362,-93.212906,3.0,$267000.0,"$8,000 (Feb 16)",https://www.zillow.com/homedetails/1506-Moss-St-Lake-Charles-LA-70601/91787265_zpid/
234 Savannah Trce,Ruston,LA,71270,32.567528,-92.647865,4.0,$472500.0,17 hours ago,https://www.zillow.com/homedetails/234-Savannah-Trce-Ruston-LA-71270/106089915_zpid/
1499 Puckett Lake Rd,West Monroe,LA,71292,32.472965,-92.25286,4.0,$149900.0,12 hours ago,https://www.zillow.com/homedetails/1499-Puckett-Lake-Rd-West-Monroe-LA-71292/92475935_zpid/
42248 Sweeney Ln,Ponchatoula,LA,70454,30.465229,-90.40132,5.0,$80000.0,25 days on Zillow,https://www.zillow.com/homedetails/42248-Sweeney-Ln-Ponchatoula-LA-70454/2059813339_zpid/
39265 Old Sawmill Rd,Ponchatoula,LA,70454,30.425219,-90.40225,4.0,$259900.0,"$20,000 (Jan 19)",https://www.zillow.com/homedetails/39265-Old-Sawmill-Rd-Ponchatoula-LA-70454/77734893_zpid/
326 S Iberville Ave,Gonzales,LA,70737,30.23081,-90.91151,3.0,$203900.0,14 hours ago,https://www.zillow.com/homedetails/326-S-Iberville-Ave-Gonzales-LA-70737/333791988_zpid/
72336 Nursery St,Covington,LA,70435,30.483952,-90.05044,4.0,$199500.0,12 days on Zillow,https://www.zillow.com/homedetails/72336-Nursery-St-Covington-LA-70435/96152950_zpid/
408 Saddlebrook Ct,Covington,LA,70435,30.520086,-90.153854,4.0,$270000.0,"$10,000 (Feb 1)",https://www.zillow.com/homedetails/408-Saddlebrook-Ct-Covington-LA-70435/96226965_zpid/
500 Broadmoor St,Monroe,LA,71203,32.5305,-92.04041,3.0,$177000.0,"$5,000 (Feb 14)",https://www.zillow.com/homedetails/500-Broadmoor-St-Monroe-LA-71203/92481559_zpid/
615 Marceaux Pvt Rd,Kaplan,LA,70548,29.800539,-92.40456,4.0,$125000.0,7 days on Zillow,https://www.zillow.com/homedetails/615-Marceaux-Pvt-Rd-Kaplan-LA-70548/106183445_zpid/
104 Gable Crest Dr,Lafayette,LA,70508,30.101828,-92.05176,3.0,$289900.0,308 days on Zillow,https://www.zillow.com/homedetails/104-Gable-Crest-Dr-Lafayette-LA-70508/2064141897_zpid/
817-19 3rd St,New Orleans,LA,70130,29.926712,-90.08053,4.0,$330000.0,"$10,000 (Feb 15)",https://www.zillow.com/homedetails/817-19-3rd-St-New-Orleans-LA-70130/2060354377_zpid/
244 Clarence Rd,Church Point,LA,70525,30.426252,-92.244026,3.0,$125000.0,2 days on Zillow,https://www.zillow.com/homedetails/244-Clarence-Rd-Church-Point-LA-70525/252221889_zpid/
17867 Nine Oaks Ave,Baton Rouge,LA,70817,30.359509,-90.9971,3.0,$220000.0,18 days on Zillow,https://www.zillow.com/homedetails/17867-Nine-Oaks-Ave-Baton-Rouge-LA-70817/66270334_zpid/
204 Westminster Dr,Slidell,LA,70460,30.29175,-89.806564,3.0,$221000.0,15 hours ago,https://www.zillow.com/homedetails/204-Westminster-Dr-Slidell-LA-70460/96138264_zpid/
917 Crestwood Dr,Covington,LA,70433,30.451437,-90.15356,3.0,$355900.0,10 hours ago,https://www.zillow.com/homedetails/917-Crestwood-Dr-Covington-LA-70433/96146848_zpid/
3848 Doris St,Shreveport,LA,71109,32.46578,-93.800964,3.0,$34990.0,12 hours ago,https://www.zillow.com/homedetails/3848-Doris-St-Shreveport-LA-71109/51362857_zpid/
2824 Dante St,New Orleans,LA,70118,29.960873,-90.11901,6.0,$475000.0,"$14,000 (Feb 17)",https://www.zillow.com/homedetails/2824-Dante-St-New-Orleans-LA-70118/84482103_zpid/
112 Palm Swift Dr,Slidell,LA,70461,30.272419,-89.6976,5.0,$384900.0,5 days on Zillow,https://www.zillow.com/homedetails/112-Palm-Swift-Dr-Slidell-LA-70461/96202621_zpid/
3329 Grand Lake Dr,Bossier City,LA,71111,32.625454,-93.7124,3.0,$240000.0,"$5,000 (Feb 9)",https://www.zillow.com/homedetails/3329-Grand-Lake-Dr-Bossier-City-LA-71111/317169111_zpid/
2156 Selma St,New Orleans,LA,70122,30.01005,-90.061005,4.0,$480000.0,124 days on Zillow,https://www.zillow.com/homedetails/2156-Selma-St-New-Orleans-LA-70122/84453423_zpid/
3925 Fairmont Dr,New Orleans,LA,70122,29.997545,-90.056496,4.0,$395000.0,29 days on Zillow,https://www.zillow.com/homedetails/3925-Fairmont-Dr-New-Orleans-LA-70122/84455810_zpid/
39141 Water Oak Ave,Prairieville,LA,70769,30.28594,-90.95064,4.0,$464900.0,"$10,099 (Jan 23)",https://www.zillow.com/homedetails/39141-Water-Oak-Ave-Prairieville-LA-70769/2090735243_zpid/
4781 Northwood Hls,Shreveport,LA,71107,32.596256,-93.87019,3.0,$278000.0,"$11,000 (Feb 13)",https://www.zillow.com/homedetails/4781-Northwood-Hls-Shreveport-LA-71107/51392962_zpid/
553 Nid Aigie Rd,Cloutierville,LA,71416,31.58789,-92.845825,4.0,$105000.0,"$24,900 (Feb 14)",https://www.zillow.com/homedetails/553-Nid-Aigie-Rd-Cloutierville-LA-71416/106105683_zpid/
2600 S Lakeshore Dr,Shreveport,LA,71109,32.48751,-93.81503,5.0,$225000.0,"$20,000 (Feb 3)",https://www.zillow.com/homedetails/2600-S-Lakeshore-Dr-Shreveport-LA-71109/51354488_zpid/
1011 Grace St,Jennings,LA,70546,30.219255,-92.671196,2.0,$49900.0,17 hours ago,https://www.zillow.com/homedetails/1011-Grace-St-Jennings-LA-70546/229954903_zpid/
25955 Stonehenge Dr,Denham Springs,LA,70726,30.443874,-90.90006,4.0,$249900.0,1 day on Zillow,https://www.zillow.com/homedetails/25955-Stonehenge-Dr-Denham-Springs-LA-70726/110895914_zpid/
3962 Riviera Dr,Slidell,LA,70458,30.251135,-89.79322,3.0,$132900.0,13 days on Zillow,https://www.zillow.com/homedetails/3962-Riviera-Dr-Slidell-LA-70458/96205092_zpid/
361 Burbridge St,Port Allen,LA,70767,30.462458,-91.204575,2.0,$204000.0,4 days on Zillow,https://www.zillow.com/homedetails/361-Burbridge-St-Port-Allen-LA-70767/103935212_zpid/
923 Birmingham Dr,Baton Rouge,LA,70819,30.452835,-91.02477,4.0,$205000.0,203 days on Zillow,https://www.zillow.com/homedetails/923-Birmingham-Dr-Baton-Rouge-LA-70819/66354832_zpid/
208 Vance Rd,Benton,LA,71006,32.662624,-93.723076,3.0,$479000.0,Open: Sun. 2-4pm,https://www.zillow.com/homedetails/208-Vance-Rd-Benton-LA-71006/109807564_zpid/
719 N Florida St,Covington,LA,70433,30.480965,-90.094475,2.0,$148900.0,8 days on Zillow,https://www.zillow.com/homedetails/719-N-Florida-St-Covington-LA-70433/245293174_zpid/
1127 Benvue Ln,Lake Charles,LA,70605,30.193016,-93.239235,4.0,$437500.0,5 days on Zillow,https://www.zillow.com/homedetails/1127-Benvue-Ln-Lake-Charles-LA-70605/242802878_zpid/
1 Highway 1187,Mansura,LA,71350,31.052124,-92.07662,0.0,$160000.0,15 hours ago,https://www.zillow.com/homedetails/1-Highway-1187-Mansura-LA-71350/2059086140_zpid/
6002 Belfast Bend Ct,Slidell,LA,70461,30.24142,-89.68262,4.0,$335000.0,"$15,000 (Feb 10)",https://www.zillow.com/homedetails/6002-Belfast-Bend-Ct-Slidell-LA-70461/333195755_zpid/
9092 Highway 10,Pitkin,LA,70656,30.96563,-93.040634,3.0,$185000.0,14 hours ago,https://www.zillow.com/homedetails/9092-Highway-10-Pitkin-LA-70656/77781178_zpid/
2054 Church Point Hwy,Rayne,LA,70578,30.2621,-92.2614,3.0,$195000.0,"$20,000 (Feb 10)",https://www.zillow.com/homedetails/2054-Church-Point-Hwy-Rayne-LA-70578/105974820_zpid/
21842 Bond Rd,Denham Springs,LA,70726,30.383602,-90.917694,3.0,$240000.0,Video Walkthrough,https://www.zillow.com/homedetails/21842-Bond-Rd-Denham-Springs-LA-70726/110891717_zpid/
169 Cecilia St,Jonesboro,LA,71251,32.246147,-92.69333,3.0,$150000.0,3D Tour,https://www.zillow.com/homedetails/169-Cecilia-St-Jonesboro-LA-71251/106069930_zpid/
4243 Woodlawn Ave,Baton Rouge,LA,70805,30.503227,-91.14782,5.0,$219900.0,"$10,000 (Jan 24)",https://www.zillow.com/homedetails/4243-Woodlawn-Ave-Baton-Rouge-LA-70805/66255636_zpid/
2063 Walker Rd,Sulphur,LA,70665,30.184975,-93.4156,4.0,$299000.0,"$16,000 (Jan 26)",https://www.zillow.com/homedetails/2063-Walker-Rd-Sulphur-LA-70665/77596518_zpid/
834 Vallette St,New Orleans,LA,70114,29.946924,-90.049065,5.0,$229000.0,8 hours ago,https://www.zillow.com/homedetails/834-Vallette-St-New-Orleans-LA-70114/73823514_zpid/
214 Fairhope Dr,Monroe,LA,71203,32.466904,-92.076035,3.0,$245000.0,3 days on Zillow,https://www.zillow.com/homedetails/214-Fairhope-Dr-Monroe-LA-71203/337150670_zpid/
1065 Eustis St,Shreveport,LA,71104,32.488407,-93.75245,5.0,$150000.0,3 days on Zillow,https://www.zillow.com/homedetails/1065-Eustis-St-Shreveport-LA-71104/51350688_zpid/
9925 Buttercup Dr,Baton Rouge,LA,70809,30.382147,-91.072235,2.0,$225000.0,13 hours ago,https://www.zillow.com/homedetails/9925-Buttercup-Dr-Baton-Rouge-LA-70809/66352418_zpid/
31451 Judith Dr,Springfield,LA,70462,30.367067,-90.56897,3.0,$220000.0,"$25,000 (Jan 11)",https://www.zillow.com/homedetails/31451-Judith-Dr-Springfield-LA-70462/110917952_zpid/
109 Platt Dr,Haughton,LA,71037,32.55773,-93.56737,4.0,$245000.0,"$4,900 (Feb 11)",https://www.zillow.com/homedetails/109-Platt-Dr-Haughton-LA-71037/109811723_zpid/
3863 Betty Virginia Cir,Shreveport,LA,71106,32.470055,-93.74829,4.0,$289900.0,"$10,000 (Dec 20)",https://www.zillow.com/homedetails/3863-Betty-Virginia-Cir-Shreveport-LA-71106/51358640_zpid/
113 Tara Dr,Deridder,LA,70634,30.847776,-93.320404,4.0,$230000.0,"$9,900 (Feb 17)",https://www.zillow.com/homedetails/113-Tara-Dr-Deridder-LA-70634/106018842_zpid/
418 N Marchand Ave,Gonzales,LA,70737,30.235456,-90.9234,3.0,$200000.0,62 days on Zillow,https://www.zillow.com/homedetails/418-N-Marchand-Ave-Gonzales-LA-70737/72224534_zpid/
11117 Regency Ave,Hammond,LA,70403,30.492779,-90.54511,3.0,$249000.0,31 days on Zillow,https://www.zillow.com/homedetails/11117-Regency-Ave-Hammond-LA-70403/123446806_zpid/
9920 Morrison Rd,New Orleans,LA,70127,30.041641,-89.98222,3.0,$239999.0,"$10,000 (Feb 14)",https://www.zillow.com/homedetails/9920-Morrison-Rd-New-Orleans-LA-70127/73803361_zpid/
2617 Laurel St,New Orleans,LA,70130,29.925325,-90.080086,2.0,$320000.0,18 days on Zillow,https://www.zillow.com/homedetails/2617-Laurel-St-New-Orleans-LA-70130/84469738_zpid/
417 Pointe Aux Chenes,Lafayette,LA,70507,30.275312,-91.98542,4.0,$235000.0,"$20,000 (Feb 21)",https://www.zillow.com/homedetails/417-Pointe-Aux-Chenes-Lafayette-LA-70507/110908827_zpid/
1961 Valdemar Pl,Bossier City,LA,71112,32.43997,-93.65345,3.0,$285000.0,19 days on Zillow,https://www.zillow.com/homedetails/1961-Valdemar-Pl-Bossier-City-LA-71112/247612620_zpid/
57346 Maple Ave,Slidell,LA,70461,30.264997,-89.75166,4.0,$200000.0,"$5,000 (Feb 3)",https://www.zillow.com/homedetails/57346-Maple-Ave-Slidell-LA-70461/96194150_zpid/
2404 Shadowbrook Dr,Baton Rouge,LA,70816,30.430258,-91.016106,3.0,$180000.0,3 days on Zillow,https://www.zillow.com/homedetails/2404-Shadowbrook-Dr-Baton-Rouge-LA-70816/66353260_zpid/
308 Founders St,Lafayette,LA,70508,30.13244,-92.03594,4.0,$489900.0,Open: Sat. 12-3pm,https://www.zillow.com/homedetails/308-Founders-St-Lafayette-LA-70508/81688319_zpid/
16355 Somersby Ave,Baton Rouge,LA,70817,30.380693,-91.002335,3.0,$255000.0,20 hours ago,https://www.zillow.com/homedetails/16355-Somersby-Ave-Baton-Rouge-LA-70817/66799203_zpid/
235 Elm Dr,Raceland,LA,70394,29.713348,-90.59129,3.0,$199000.0,"$16,000 (Jan 13)",https://www.zillow.com/homedetails/235-Elm-Dr-Raceland-LA-70394/119428449_zpid/
1408 Edwards Rd,Sulphur,LA,70663,30.313215,-93.28283,1.0,$130000.0,"$15,000 (Jan 9)",https://www.zillow.com/homedetails/1408-Edwards-Rd-Sulphur-LA-70663/2062787761_zpid/
836 Saint Peter St #2,New Orleans,LA,70116,29.9587,-90.06606,1.0,$219000.0,"$10,000 (Feb 13)",https://www.zillow.com/homedetails/836-Saint-Peter-St-2-New-Orleans-LA-70116/148970232_zpid/
17047 Hunters Trce W,Prairieville,LA,70769,30.314743,-90.94648,3.0,$239900.0,1 day on Zillow,https://www.zillow.com/homedetails/17047-Hunters-Trce-W-Prairieville-LA-70769/1464302_zpid/
2144 Marion Dr,La Place,LA,70068,30.091375,-90.49509,5.0,$250000.0,"$35,000 (Feb 16)",https://www.zillow.com/homedetails/2144-Marion-Dr-La-Place-LA-70068/106116353_zpid/
109 White Oak Dr,Lafayette,LA,70506,30.224192,-92.04025,4.0,$246500.0,21 days on Zillow,https://www.zillow.com/homedetails/109-White-Oak-Dr-Lafayette-LA-70506/2059746669_zpid/
4625 Burbank Dr APT 607,Baton Rouge,LA,70820,30.398987,-91.17216,3.0,$220000.0,2 days on Zillow,https://www.zillow.com/homedetails/4625-Burbank-Dr-APT-607-Baton-Rouge-LA-70820/66386799_zpid/
105 Pardrew Ln,Scott,LA,70583,30.288801,-92.11701,4.0,$299900.0,1 day on Zillow,https://www.zillow.com/homedetails/105-Pardrew-Ln-Scott-LA-70583/81688116_zpid/
28 Whitmar Dr,Hammond,LA,70401,30.52461,-90.4677,3.0,$180000.0,11 days on Zillow,https://www.zillow.com/homedetails/28-Whitmar-Dr-Hammond-LA-70401/77730488_zpid/
1550 Westbury Dr,Shreveport,LA,71105,32.439156,-93.72402,4.0,$299000.0,"$25,900 (Feb 17)",https://www.zillow.com/homedetails/1550-Westbury-Dr-Shreveport-LA-71105/51345318_zpid/
4412 Tibbs St,Shreveport,LA,71105,32.46081,-93.730095,3.0,$199000.0,6 days on Zillow,https://www.zillow.com/homedetails/4412-Tibbs-St-Shreveport-LA-71105/51342510_zpid/
0 Highway 3072,Ruston,LA,71270,,,,$139500.0,14 hours ago,https://www.zillow.com/homedetails/0-Highway-3072-Ruston-LA-71270/2060174630_zpid/
140 Lakeshore Vlg S,Slidell,LA,70461,30.214905,-89.75984,3.0,$330000.0,"$20,000 (Feb 15)",https://www.zillow.com/homedetails/140-Lakeshore-Vlg-S-Slidell-LA-70461/96190795_zpid/
201 Mount Hope Ave,Lafayette,LA,70508,30.143904,-92.073555,4.0,$415000.0,12 hours ago,https://www.zillow.com/homedetails/201-Mount-Hope-Ave-Lafayette-LA-70508/239657812_zpid/
632 Passchyn St,Cottonport,LA,71327,30.9889,-92.044304,3.0,$135000.0,12 hours ago,https://www.zillow.com/homedetails/632-Passchyn-St-Cottonport-LA-71327/230242185_zpid/
3055 Oneal Ln,Baton Rouge,LA,70816,30.424297,-91.00718,3.0,$140000.0,4 days on Zillow,https://www.zillow.com/homedetails/3055-Oneal-Ln-Baton-Rouge-LA-70816/66251086_zpid/
721 Willow Oak Ln,Mandeville,LA,70471,30.395153,-90.11755,5.0,$293000.0,26 days on Zillow,https://www.zillow.com/homedetails/721-Willow-Oak-Ln-Mandeville-LA-70471/96232232_zpid/
2913 Country Lake Dr,Zachary,LA,70791,30.675636,-91.16867,4.0,$374900.0,"$4,100 (Feb 2)",https://www.zillow.com/homedetails/2913-Country-Lake-Dr-Zachary-LA-70791/119110375_zpid/
339 Fossett Rd,Kinder,LA,70648,30.511457,-92.84917,4.0,$255000.0,1 day on Zillow,https://www.zillow.com/homedetails/339-Fossett-Rd-Kinder-LA-70648/236314416_zpid/
209 Silver Creek Cir,Lafayette,LA,70508,30.157919,-92.008644,3.0,$250000.0,12 days on Zillow,https://www.zillow.com/homedetails/209-Silver-Creek-Cir-Lafayette-LA-70508/77672129_zpid/
402 S Iberville Ave,Gonzales,LA,70737,30.22868,-90.91181,3.0,$203900.0,14 hours ago,https://www.zillow.com/homedetails/402-S-Iberville-Ave-Gonzales-LA-70737/2059308690_zpid/
4300 Purdue Dr,Metairie,LA,70003,30.016558,-90.21079,3.0,$250000.0,"$32,500 (Feb 19)",https://www.zillow.com/homedetails/4300-Purdue-Dr-Metairie-LA-70003/73732334_zpid/
621 Mandeville St,New Orleans,LA,70117,29.964321,-90.053734,3.0,$649000.0,9 days on Zillow,https://www.zillow.com/homedetails/621-Mandeville-St-New-Orleans-LA-70117/73790611_zpid/
1002 Deborah Dr,Slidell,LA,70461,30.2781,-89.73288,4.0,$294900.0,11 days on Zillow,https://www.zillow.com/homedetails/1002-Deborah-Dr-Slidell-LA-70461/96236401_zpid/
5921 Sumrall Dr,Baton Rouge,LA,70811,30.513918,-91.13155,4.0,$220000.0,"$2,500 (Feb 9)",https://www.zillow.com/homedetails/5921-Sumrall-Dr-Baton-Rouge-LA-70811/188675781_zpid/
1094 Bridgetowne Ln,Breaux Bridge,LA,70517,30.287586,-91.868126,3.0,$175000.0,18 days on Zillow,https://www.zillow.com/homedetails/1094-Bridgetowne-Ln-Breaux-Bridge-LA-70517/116002764_zpid/
586 Corinth Cir,Bossier City,LA,71111,32.65381,-93.6385,4.0,$567420.0,11 days on Zillow,https://www.zillow.com/homedetails/586-Corinth-Cir-Bossier-City-LA-71111/2059282743_zpid/
1767 McQuaid Dr,Baton Rouge,LA,70810,30.36395,-91.076035,3.0,$225000.0,40 days on Zillow,https://www.zillow.com/homedetails/1767-McQuaid-Dr-Baton-Rouge-LA-70810/66347686_zpid/
1751 Arledge Rd,Vinton,LA,70668,30.201935,-93.65963,2.0,$100000.0,4 days on Zillow,https://www.zillow.com/homedetails/1751-Arledge-Rd-Vinton-LA-70668/77592650_zpid/
22362 Chinquapin Ave,Maurepas,LA,70449,30.260168,-90.71126,2.0,$259900.0,22 hours ago,https://www.zillow.com/homedetails/22362-Chinquapin-Ave-Maurepas-LA-70449/210278742_zpid/
113 Woods Dr,Madisonville,LA,70447,30.422235,-90.1637,3.0,$260000.0,14 days on Zillow,https://www.zillow.com/homedetails/113-Woods-Dr-Madisonville-LA-70447/96180450_zpid/
1228 Royal St APT 7,New Orleans,LA,70116,29.962114,-90.06084,1.0,$339000.0,5 days on Zillow,https://www.zillow.com/homedetails/1228-Royal-St-APT-7-New-Orleans-LA-70116/148974431_zpid/
408 Wyche St,Bossier City,LA,71111,32.52368,-93.7355,2.0,$100000.0,"$10,000 (Dec 2)",https://www.zillow.com/homedetails/408-Wyche-St-Bossier-City-LA-71111/109814827_zpid/
220 Nottaway Dr,West Monroe,LA,71291,32.540318,-92.21091,4.0,$317000.0,12 hours ago,https://www.zillow.com/homedetails/220-Nottaway-Dr-West-Monroe-LA-71291/92469024_zpid/
1555 Marigny Ave,Mandeville,LA,70448,30.371187,-90.05363,3.0,$289000.0,14 days on Zillow,https://www.zillow.com/homedetails/1555-Marigny-Ave-Mandeville-LA-70448/96147498_zpid/
6989 Regatta Dr,Shreveport,LA,71107,32.63486,-93.89624,4.0,$249000.0,7 days on Zillow,https://www.zillow.com/homedetails/6989-Regatta-Dr-Shreveport-LA-71107/118316968_zpid/
404 S Iberville Ave,Gonzales,LA,70737,30.22868,-90.91181,3.0,$203900.0,13 hours ago,https://www.zillow.com/homedetails/404-S-Iberville-Ave-Gonzales-LA-70737/2059308691_zpid/
412 Naples Ct,Slidell,LA,70458,30.31666,-89.74012,4.0,$435000.0,4 days on Zillow,https://www.zillow.com/homedetails/412-Naples-Ct-Slidell-LA-70458/251984017_zpid/
30445 Hubert Stilley Rd,Independence,LA,70443,30.594818,-90.57822,4.0,$450000.0,40 days on Zillow,https://www.zillow.com/homedetails/30445-Hubert-Stilley-Rd-Independence-LA-70443/110889379_zpid/
3524 Joyce Dr,Mandeville,LA,70448,30.37041,-90.0879,4.0,$355000.0,11 days on Zillow,https://www.zillow.com/homedetails/3524-Joyce-Dr-Mandeville-LA-70448/96249634_zpid/
118 Gentry Cir,Lafayette,LA,70508,30.1586,-92.01769,4.0,$430000.0,4 days on Zillow,https://www.zillow.com/homedetails/118-Gentry-Cir-Lafayette-LA-70508/77669798_zpid/
213 W 86th St,Shreveport,LA,71106,32.42542,-93.75951,3.0,$41750.0,15 hours ago,https://www.zillow.com/homedetails/213-W-86th-St-Shreveport-LA-71106/51375062_zpid/
44074 Covington Rdg,Hammond,LA,70403,30.493979,-90.43808,3.0,$235000.0,4 days on Zillow,https://www.zillow.com/homedetails/44074-Covington-Rdg-Hammond-LA-70403/2059128406_zpid/
637 Dauphine St,New Orleans,LA,70112,29.959177,-90.06678,2.0,$699000.0,11 hours ago,https://www.zillow.com/homedetails/637-Dauphine-St-New-Orleans-LA-70112/148970496_zpid/
119 Pebble Beach Dr,Youngsville,LA,70592,30.14321,-91.99943,3.0,$180000.0,"$5,000 (Feb 9)",https://www.zillow.com/homedetails/119-Pebble-Beach-Dr-Youngsville-LA-70592/77654407_zpid/
1434 Owl Ct,Mandeville,LA,70448,30.373175,-90.04353,3.0,$289900.0,1 day on Zillow,https://www.zillow.com/homedetails/1434-Owl-Ct-Mandeville-LA-70448/96229362_zpid/
220 S Washington St,Lafayette,LA,70501,30.232376,-92.02212,3.0,$75000.0,"$10,000 (Feb 16)",https://www.zillow.com/homedetails/220-S-Washington-St-Lafayette-LA-70501/77679331_zpid/
145 Brent Rd,Bell City,LA,70630,30.018635,-93.13287,4.0,$125000.0,20 days on Zillow,https://www.zillow.com/homedetails/145-Brent-Rd-Bell-City-LA-70630/106026224_zpid/
23329 Ruger Dr,Denham Springs,LA,70726,30.410006,-90.87222,4.0,$250000.0,10 days on Zillow,https://www.zillow.com/homedetails/23329-Ruger-Dr-Denham-Springs-LA-70726/337481047_zpid/
10901 Springfield Rd,Denham Springs,LA,70706,30.59084,-90.9068,3.0,$199900.0,21 days on Zillow,https://www.zillow.com/homedetails/10901-Springfield-Rd-Denham-Springs-LA-70706/299465226_zpid/
3234 Impala Dr,Bossier City,LA,71112,32.512417,-93.68881,3.0,$115000.0,3 days on Zillow,https://www.zillow.com/homedetails/3234-Impala-Dr-Bossier-City-LA-71112/109784937_zpid/
1535 S Chateau Cir,Lake Charles,LA,70605,30.193125,-93.24494,5.0,$454900.0,"$5,000 (Feb 16)",https://www.zillow.com/homedetails/1535-S-Chateau-Cir-Lake-Charles-LA-70605/2132304817_zpid/
1405 9th St,Kentwood,LA,70444,30.91743,-90.51745,3.0,$170000.0,29 days on Zillow,https://www.zillow.com/homedetails/1405-9th-St-Kentwood-LA-70444/84157274_zpid/
1308 Wedgewood St,Lake Charles,LA,70605,30.171562,-93.228584,3.0,$239000.0,19 days on Zillow,https://www.zillow.com/homedetails/1308-Wedgewood-St-Lake-Charles-LA-70605/77599001_zpid/
1131 N Roman St,New Orleans,LA,70116,29.969269,-90.07192,3.0,$299000.0,"$20,000 (Feb 2)",https://www.zillow.com/homedetails/1131-N-Roman-St-New-Orleans-LA-70116/73780282_zpid/
414 Bonner Ferry Rd,Bastrop,LA,71220,32.792877,-91.91455,2.0,$23900.0,"$6,000 (Jan 25)",https://www.zillow.com/homedetails/414-Bonner-Ferry-Rd-Bastrop-LA-71220/115152466_zpid/
376 Wood Spgs,Haughton,LA,71037,32.56255,-93.618935,4.0,$325000.0,13 days on Zillow,https://www.zillow.com/homedetails/376-Wood-Spgs-Haughton-LA-71037/252446958_zpid/
224 Travailleur Rd,Lafayette,LA,70506,30.194443,-92.102356,3.0,$195000.0,12 days on Zillow,https://www.zillow.com/homedetails/224-Travailleur-Rd-Lafayette-LA-70506/140809891_zpid/
7412 Panola St,New Orleans,LA,70118,29.950485,-90.11918,4.0,$542800.0,8 days on Zillow,https://www.zillow.com/homedetails/7412-Panola-St-New-Orleans-LA-70118/2059263731_zpid/
1603 Cappy Dr,Lake Charles,LA,70605,30.185072,-93.246605,3.0,$279900.0,3 days on Zillow,https://www.zillow.com/homedetails/1603-Cappy-Dr-Lake-Charles-LA-70605/77594139_zpid/
3699 Brookwood Dr,Slidell,LA,70458,30.256065,-89.79189,4.0,$169000.0,171 days on Zillow,https://www.zillow.com/homedetails/3699-Brookwood-Dr-Slidell-LA-70458/96203334_zpid/
1158 Rose Meadow Loop,Slidell,LA,70460,30.326033,-89.83042,3.0,$187000.0,13 days on Zillow,https://www.zillow.com/homedetails/1158-Rose-Meadow-Loop-Slidell-LA-70460/96239544_zpid/
1011 Robert St,Saint Martinville,LA,70582,30.22396,-91.81268,4.0,$415000.0,43 days on Zillow,https://www.zillow.com/homedetails/1011-Robert-St-Saint-Martinville-LA-70582/225971945_zpid/
5822 Hidden Ridge Ln,Baton Rouge,LA,70816,30.428825,-91.02299,4.0,$289000.0,112 days on Zillow,https://www.zillow.com/homedetails/5822-Hidden-Ridge-Ln-Baton-Rouge-LA-70816/70846192_zpid/
10448 Bronzebush Ave,Baton Rouge,LA,70816,30.427895,-91.07039,4.0,$169990.0,"$19,010 (Feb 14)",https://www.zillow.com/homedetails/10448-Bronzebush-Ave-Baton-Rouge-LA-70816/66311117_zpid/
528 Saint Louis St APT 203,New Orleans,LA,70130,29.95521,-90.0646,2.0,$435000.0,33 days on Zillow,https://www.zillow.com/homedetails/528-Saint-Louis-St-APT-203-New-Orleans-LA-70130/148962378_zpid/
1549 Philip St #B,New Orleans,LA,70130,29.932945,-90.080894,1.0,$275000.0,18 hours ago,https://www.zillow.com/homedetails/1549-Philip-St-B-New-Orleans-LA-70130/2110216933_zpid/
3206 Mackey Ln,Shreveport,LA,71118,32.41291,-93.81233,3.0,$95000.0,16 hours ago,https://www.zillow.com/homedetails/3206-Mackey-Ln-Shreveport-LA-71118/51323985_zpid/
620 Neil Rd,Westlake,LA,70669,30.280424,-93.23314,2.0,$189900.0,11 days on Zillow,https://www.zillow.com/homedetails/620-Neil-Rd-Westlake-LA-70669/81580045_zpid/
17745 Bevan Dr,Baton Rouge,LA,70817,30.351437,-90.99105,3.0,$229900.0,4 days on Zillow,https://www.zillow.com/homedetails/17745-Bevan-Dr-Baton-Rouge-LA-70817/66377029_zpid/
10811 Landsbury Ave,Baton Rouge,LA,70809,30.40603,-91.06525,5.0,$369500.0,14 days on Zillow,https://www.zillow.com/homedetails/10811-Landsbury-Ave-Baton-Rouge-LA-70809/66363610_zpid/
299 Rachel Ln,Des Allemands,LA,70030,29.816818,-90.48024,4.0,$379900.0,"$20,000 (Feb 2)",https://www.zillow.com/homedetails/299-Rachel-Ln-Des-Allemands-LA-70030/119414053_zpid/
1415 Fremont St,New Iberia,LA,70560,30.03731,-91.81966,4.0,$177200.0,"$2,700 (Jan 30)",https://www.zillow.com/homedetails/1415-Fremont-St-New-Iberia-LA-70560/77619635_zpid/
6043 Old Mooringsport Rd,Shreveport,LA,71107,32.602566,-93.85731,3.0,$85000.0,16 hours ago,https://www.zillow.com/homedetails/6043-Old-Mooringsport-Rd-Shreveport-LA-71107/2059086450_zpid/
288 Moonraker Dr,Slidell,LA,70458,30.224108,-89.813354,3.0,$390000.0,53 days on Zillow,https://www.zillow.com/homedetails/288-Moonraker-Dr-Slidell-LA-70458/96195807_zpid/
39098 Prairie South Dr,Gonzales,LA,70737,30.275671,-90.95215,3.0,$210000.0,13 days on Zillow,https://www.zillow.com/homedetails/39098-Prairie-South-Dr-Gonzales-LA-70737/108604481_zpid/
1887 Crete St,New Orleans,LA,70119,29.987452,-90.07645,4.0,$245000.0,1 day on Zillow,https://www.zillow.com/homedetails/1887-Crete-St-New-Orleans-LA-70119/148983120_zpid/
100 Pontchartrain Dr,Carencro,LA,70520,30.351448,-92.037766,3.0,$319000.0,1 day on Zillow,https://www.zillow.com/homedetails/100-Pontchartrain-Dr-Carencro-LA-70520/126838150_zpid/
150 Acacia Dr,Lafayette,LA,70508,30.191862,-92.02904,4.0,$595000.0,"$25,000 (Feb 10)",https://www.zillow.com/homedetails/150-Acacia-Dr-Lafayette-LA-70508/77669522_zpid/
21184 Lee Ln,Ponchatoula,LA,70454,30.470078,-90.37444,5.0,$224900.0,76 days on Zillow,https://www.zillow.com/homedetails/21184-Lee-Ln-Ponchatoula-LA-70454/77737651_zpid/
509 Lauve Ln,Luling,LA,70070,29.931799,-90.37185,4.0,$245000.0,5 days on Zillow,https://www.zillow.com/homedetails/509-Lauve-Ln-Luling-LA-70070/94756353_zpid/
1749 Arledge Rd,Vinton,LA,70668,30.201956,-93.6626,3.0,$230000.0,"$7,000 (Feb 21)",https://www.zillow.com/homedetails/1749-Arledge-Rd-Vinton-LA-70668/299111120_zpid/
30743 Provision Ln,Denham Springs,LA,70726,30.50933,-90.93159,4.0,$225000.0,"$15,000 (Feb 19)",https://www.zillow.com/homedetails/30743-Provision-Ln-Denham-Springs-LA-70726/110886580_zpid/
519 Huckleberry Trce,Ball,LA,71405,31.422688,-92.41892,4.0,$164900.0,50 days on Zillow,https://www.zillow.com/homedetails/519-Huckleberry-Trce-Ball-LA-71405/2067700538_zpid/
400-402 Olivier St,New Orleans,LA,70114,29.953823,-90.050026,4.0,$349000.0,4 days on Zillow,https://www.zillow.com/homedetails/400-402-Olivier-St-New-Orleans-LA-70114/2059126143_zpid/
25218 Lowe Davis Rd,Covington,LA,70435,30.523607,-89.98393,3.0,$270000.0,"$10,000 (Feb 13)",https://www.zillow.com/homedetails/25218-Lowe-Davis-Rd-Covington-LA-70435/96171284_zpid/
2932 Byron St,Baton Rouge,LA,70805,30.49333,-91.16098,2.0,$37900.0,"$10,100 (Feb 21)",https://www.zillow.com/homedetails/2932-Byron-St-Baton-Rouge-LA-70805/2060123296_zpid/
5701 Lakefront Dr,Shreveport,LA,71119,32.49066,-93.836945,2.0,$350000.0,11 days on Zillow,https://www.zillow.com/homedetails/5701-Lakefront-Dr-Shreveport-LA-71119/51354768_zpid/
1079 Zoes Ct,Lake Charles,LA,70605,,,4.0,$139900.0,14 days on Zillow,https://www.zillow.com/homedetails/1079-Zoes-Ct-Lake-Charles-LA-70605/2059441422_zpid/
6804 Cummins St,Metairie,LA,70003,29.98674,-90.211044,3.0,$205000.0,"$5,000 (Feb 15)",https://www.zillow.com/homedetails/6804-Cummins-St-Metairie-LA-70003/73724997_zpid/
3848 Walker Ferry Rd,Pollock,LA,71467,31.47578,-92.281876,3.0,$279000.0,71 days on Zillow,https://www.zillow.com/homedetails/3848-Walker-Ferry-Rd-Pollock-LA-71467/115132772_zpid/
724 Peridot Ln,Lake charles,LA,70611,30.343767,-93.21293,3.0,$189900.0,52 days on Zillow,https://www.zillow.com/homedetails/724-Peridot-Ln-Lake-Charles-LA-70611/242865503_zpid/
303 Knapp St,Leesville,LA,71446,31.154676,-93.25928,3.0,$144000.0,155 days on Zillow,https://www.zillow.com/homedetails/303-Knapp-St-Leesville-LA-71446/77775823_zpid/
601 Beaufort St,Welsh,LA,70591,30.239376,-92.81263,5.0,$180000.0,33 days on Zillow,https://www.zillow.com/homedetails/601-Beaufort-St-Welsh-LA-70591/229960819_zpid/
36197 Greenleaf Ct,Prairieville,LA,70769,30.319801,-91.0022,4.0,$439900.0,"$10,100 (Feb 16)",https://www.zillow.com/homedetails/36197-Greenleaf-Ct-Prairieville-LA-70769/53468983_zpid/
410 N 16th St,Monroe,LA,71201,32.513718,-92.1064,4.0,$135000.0,5 days on Zillow,https://www.zillow.com/homedetails/410-N-16th-St-Monroe-LA-71201/101618163_zpid/
106 Briar Trce,Monroe,LA,71203,32.549652,-92.01757,3.0,$237350.0,2 days on Zillow,https://www.zillow.com/homedetails/106-Briar-Trce-Monroe-LA-71203/247233995_zpid/
30908 N Corbin Rd,Walker,LA,70785,30.515455,-90.83633,4.0,$405000.0,"$14,500 (Feb 22)",https://www.zillow.com/homedetails/30908-N-Corbin-Rd-Walker-LA-70785/110879127_zpid/
217 Roanoke Cir,Benton,LA,71006,32.645844,-93.71433,4.0,$334000.0,"$11,000 (Feb 1)",https://www.zillow.com/homedetails/217-Roanoke-Cir-Benton-LA-71006/208129883_zpid/
300 Coffin Rd,Carencro,LA,70520,30.337463,-92.04655,3.0,$170000.0,5 days on Zillow,https://www.zillow.com/homedetails/300-Coffin-Rd-Carencro-LA-70520/126787299_zpid/
1671 State Route 394,Deridder,LA,70634,,,4.0,$139000.0,14 days on Zillow,https://www.zillow.com/homedetails/1671-State-Route-394-Deridder-LA-70634/2059464716_zpid/
13716 Cedar Ridge Ave,Baton Rouge,LA,70817,30.400831,-91.02849,4.0,$275000.0,"$15,000 (Feb 18)",https://www.zillow.com/homedetails/13716-Cedar-Ridge-Ave-Baton-Rouge-LA-70817/66345086_zpid/
72425 Sunset Dr,Covington,LA,70433,30.487976,-90.15462,3.0,$525000.0,10 days on Zillow,https://www.zillow.com/homedetails/72425-Sunset-Dr-Covington-LA-70433/121935776_zpid/
503 Duplechin Rd,Church Point,LA,70525,30.49318,-92.22359,3.0,$175000.0,"$15,000 (Feb 11)",https://www.zillow.com/homedetails/503-Duplechin-Rd-Church-Point-LA-70525/289065546_zpid/
125 Barton Pl,Breaux Bridge,LA,70517,30.271845,-91.89581,4.0,$299000.0,"$16,000 (Feb 14)",https://www.zillow.com/homedetails/125-Barton-Pl-Breaux-Bridge-LA-70517/106162402_zpid/
119 Lionel Ln,Lake Charles,LA,70607,30.013836,-93.23171,3.0,$199900.0,162 days on Zillow,https://www.zillow.com/homedetails/119-Lionel-Ln-Lake-Charles-LA-70607/194535989_zpid/
601 Highway 1147,Deridder,LA,70634,30.79279,-93.11395,4.0,$104900.0,15 days on Zillow,https://www.zillow.com/homedetails/601-Highway-1147-Deridder-LA-70634/2085124374_zpid/
4959 Lurline St,New Orleans,LA,70127,30.025955,-89.97107,3.0,$185000.0,Open: Sat. 1-3pm,https://www.zillow.com/homedetails/4959-Lurline-St-New-Orleans-LA-70127/149037227_zpid/
828 Treasure Ln,Lake Charles,LA,70605,30.191301,-93.23274,4.0,$322000.0,278 days on Zillow,https://www.zillow.com/homedetails/828-Treasure-Ln-Lake-Charles-LA-70605/2063205719_zpid/
26039 Coronation Dr,Denham Springs,LA,70726,30.446175,-90.89756,4.0,$268900.0,Open: Sun. 1-3pm,https://www.zillow.com/homedetails/26039-Coronation-Dr-Denham-Springs-LA-70726/110880518_zpid/
4 Clematis Cor,Lafayette,LA,70507,30.280142,-92.0162,3.0,$144000.0,13 days on Zillow,https://www.zillow.com/homedetails/4-Clematis-Cor-Lafayette-LA-70507/77647428_zpid/
10822 N Old Settlement Rd,Zachary,LA,70791,30.60614,-91.067535,3.0,$175000.0,"$19,900 (Feb 9)",https://www.zillow.com/homedetails/10822-N-Old-Settlement-Rd-Zachary-LA-70791/66320236_zpid/
825 Louisiana Ave APT 10,New Orleans,LA,70115,29.920507,-90.08739,2.0,$249000.0,16 days on Zillow,https://www.zillow.com/homedetails/825-Louisiana-Ave-APT-10-New-Orleans-LA-70115/149067637_zpid/
223 Mills St,Scott,LA,70583,30.23742,-92.091354,2.0,$147500.0,"$5,000 (Feb 16)",https://www.zillow.com/homedetails/223-Mills-St-Scott-LA-70583/2060194060_zpid/
2131 Baronne St,New Orleans,LA,70113,29.936703,-90.08238,4.0,$599000.0,265 days on Zillow,https://www.zillow.com/homedetails/2131-Baronne-St-New-Orleans-LA-70113/305047555_zpid/
10594 Highland Lakes Dr,Denham Springs,LA,70726,,,3.0,$314500.0,"$4,000 (Jan 23)",https://www.zillow.com/homedetails/10594-Highland-Lakes-Dr-Denham-Springs-LA-70726/2077235895_zpid/
107 Saint Thomas Way,Covington,LA,70433,30.497988,-90.09945,3.0,$245000.0,6 days on Zillow,https://www.zillow.com/homedetails/107-Saint-Thomas-Way-Covington-LA-70433/96204436_zpid/
67023 Thackery St,Mandeville,LA,70471,30.40232,-90.07895,4.0,$320000.0,4 days on Zillow,https://www.zillow.com/homedetails/67023-Thackery-St-Mandeville-LA-70471/96201190_zpid/
1115 Eustis St,Shreveport,LA,71104,32.488403,-93.75375,4.0,$120000.0,3 days on Zillow,https://www.zillow.com/homedetails/1115-Eustis-St-Shreveport-LA-71104/51350680_zpid/
2223 Felicity St,New Orleans,LA,70113,29.942202,-90.08397,4.0,$189000.0,130 days on Zillow,https://www.zillow.com/homedetails/2223-Felicity-St-New-Orleans-LA-70113/148956434_zpid/
70 Chamale Cv #70,Slidell,LA,70460,30.276556,-89.787895,4.0,$215000.0,"$14,000 (Feb 15)",https://www.zillow.com/homedetails/70-Chamale-Cv-70-Slidell-LA-70460/96249131_zpid/
437 Spartan Loop,Slidell,LA,70458,30.243895,-89.78126,4.0,$295000.0,"$5,000 (Jan 7)",https://www.zillow.com/homedetails/437-Spartan-Loop-Slidell-LA-70458/96197096_zpid/
312 Patterson St,Lafayette,LA,70501,30.246862,-92.019005,3.0,$218000.0,13 days on Zillow,https://www.zillow.com/homedetails/312-Patterson-St-Lafayette-LA-70501/294837130_zpid/
1201 Canal St APT 356,New Orleans,LA,70112,29.956402,-90.07335,1.0,$238000.0,6 days on Zillow,https://www.zillow.com/homedetails/1201-Canal-St-APT-356-New-Orleans-LA-70112/148962624_zpid/
5834 Shadowood Dr,Baton Rouge,LA,70812,30.50835,-91.09759,3.0,$219900.0,24 days on Zillow,https://www.zillow.com/homedetails/5834-Shadowood-Dr-Baton-Rouge-LA-70812/251949372_zpid/
1923-D S Brightside View Dr,Baton Rouge,LA,70820,30.385817,-91.18106,2.0,$134900.0,14 hours ago,https://www.zillow.com/homedetails/1923-D-S-Brightside-View-Dr-Baton-Rouge-LA-70820/2059084643_zpid/
206 Ashley Ave,Rayville,LA,71269,32.465626,-91.76541,3.0,$74900.0,4 days on Zillow,https://www.zillow.com/homedetails/206-Ashley-Ave-Rayville-LA-71269/236333416_zpid/
229 Glenwood Dr,Houma,LA,70363,29.589485,-90.69509,3.0,$164000.0,"$10,900 (Feb 15)",https://www.zillow.com/homedetails/229-Glenwood-Dr-Houma-LA-70363/77755008_zpid/
153 Sanford Ln,West Monroe,LA,71291,32.529606,-92.235634,3.0,$320000.0,4 days on Zillow,https://www.zillow.com/homedetails/153-Sanford-Ln-West-Monroe-LA-71291/92512236_zpid/
647 Deer Park Rd,Vidalia,LA,71373,31.426243,-91.56442,3.0,$69900.0,"$5,000 (Feb 16)",https://www.zillow.com/homedetails/647-Deer-Park-Rd-Vidalia-LA-71373/232936591_zpid/
43162 Highway 38,Franklinton,LA,70438,30.929886,-90.16822,4.0,$299000.0,2 days on Zillow,https://www.zillow.com/homedetails/43162-Highway-38-Franklinton-LA-70438/106199345_zpid/
4318 Pleasant Dr,Lake charles,LA,70605,30.17937,-93.22862,3.0,$205000.0,293 days on Zillow,https://www.zillow.com/homedetails/4318-Pleasant-Dr-Lake-Charles-LA-70605/77598508_zpid/
1805 N Claiborne St,Sulphur,LA,70663,30.258987,-93.38831,3.0,$180000.0,22 days on Zillow,https://www.zillow.com/homedetails/1805-N-Claiborne-St-Sulphur-LA-70663/91778399_zpid/
100 Terra Ave,Alexandria,LA,71303,31.272919,-92.50004,3.0,$205000.0,20 days on Zillow,https://www.zillow.com/homedetails/100-Terra-Ave-Alexandria-LA-71303/77706946_zpid/
909 Rosedown Ln,Lafayette,LA,70503,30.15421,-92.0745,4.0,$265000.0,33 days on Zillow,https://www.zillow.com/homedetails/909-Rosedown-Ln-Lafayette-LA-70503/77647798_zpid/
27651 Lakeview Dr,Walker,LA,70785,30.468666,-90.8842,4.0,$375000.0,6 days on Zillow,https://www.zillow.com/homedetails/27651-Lakeview-Dr-Walker-LA-70785/299430543_zpid/
3582 Pine Knolls Dr,Sulphur,LA,70663,30.314114,-93.34985,4.0,$397000.0,"$32,900 (Nov 28)",https://www.zillow.com/homedetails/3582-Pine-Knolls-Dr-Sulphur-LA-70663/81666556_zpid/
823 W Claude St,Lake charles,LA,70605,30.187096,-93.23408,3.0,$235000.0,"$5,000 (Jan 18)",https://www.zillow.com/homedetails/823-W-Claude-St-Lake-Charles-LA-70605/77593948_zpid/
1010 Simon Angelle Rd,Arnaudville,LA,70512,30.383018,-91.91281,3.0,$390000.0,1 day on Zillow,https://www.zillow.com/homedetails/1010-Simon-Angelle-Rd-Arnaudville-LA-70512/106154109_zpid/
13081 Cypress Swamp Dr,Geismar,LA,70734,30.256645,-91.00152,3.0,$395000.0,4 days on Zillow,https://www.zillow.com/homedetails/13081-Cypress-Swamp-Dr-Geismar-LA-70734/108594167_zpid/
1216 Sere St,New Orleans,LA,70122,29.993391,-90.08227,4.0,$439000.0,5 days on Zillow,https://www.zillow.com/homedetails/1216-Sere-St-New-Orleans-LA-70122/148984419_zpid/
3111 Turkey Creek Cir,Haughton,LA,71037,32.49835,-93.51047,4.0,$269500.0,24 days on Zillow,https://www.zillow.com/homedetails/3111-Turkey-Creek-Cir-Haughton-LA-71037/109789176_zpid/
1005 A Courville Rd,Saint Martinville,LA,70582,30.212912,-91.706505,5.0,$259000.0,"$16,000 (Feb 19)",https://www.zillow.com/homedetails/1005-A-Courville-Rd-Saint-Martinville-LA-70582/106153267_zpid/
61900 Shady Pine Rd,Lacombe,LA,70445,30.327623,-89.90677,3.0,$379000.0,"$9,000 (Jan 17)",https://www.zillow.com/homedetails/61900-Shady-Pine-Rd-Lacombe-LA-70445/96143140_zpid/
1500 Michigan Ave,Metairie,LA,70062,29.992142,-90.23015,3.0,$330000.0,4 days on Zillow,https://www.zillow.com/homedetails/1500-Michigan-Ave-Metairie-LA-70062/73750770_zpid/
7004 Beau Darren Dr,Baton Rouge,LA,70817,30.38798,-91.00597,4.0,$317500.0,"$2,500 (Feb 17)",https://www.zillow.com/homedetails/7004-Beau-Darren-Dr-Baton-Rouge-LA-70817/66799530_zpid/
2427 Peniston St,New Orleans,LA,70115,29.93542,-90.09756,4.0,$379000.0,12 days on Zillow,https://www.zillow.com/homedetails/2427-Peniston-St-New-Orleans-LA-70115/149073539_zpid/
25 Woodvine Ct,Covington,LA,70433,30.419556,-90.08917,3.0,$469900.0,6 days on Zillow,https://www.zillow.com/homedetails/25-Woodvine-Ct-Covington-LA-70433/96161047_zpid/
9891 E Williams St #2,Rodessa,LA,71069,32.969788,-93.99523,3.0,$25000.0,12 hours ago,https://www.zillow.com/homedetails/9891-E-Williams-St-2-Rodessa-LA-71069/2059083196_zpid/
321 Madison Crossing Dr,Sulphur,LA,70665,30.204998,-93.37043,4.0,$230000.0,"$10,000 (Feb 10)",https://www.zillow.com/homedetails/321-Madison-Crossing-Dr-Sulphur-LA-70665/2061290580_zpid/
222 Ja Don Dr,Houma,LA,70363,29.538242,-90.60719,5.0,$225000.0,8 days on Zillow,https://www.zillow.com/homedetails/222-Ja-Don-Dr-Houma-LA-70363/77762336_zpid/
1212 Kent Ave,Metairie,LA,70001,29.987001,-90.19239,3.0,$309000.0,3 days on Zillow,https://www.zillow.com/homedetails/1212-Kent-Ave-Metairie-LA-70001/73730981_zpid/
4936 Coliseum St,New Orleans,LA,70115,29.92299,-90.108795,4.0,$550000.0,Open: Wed. 11am-1pm,https://www.zillow.com/homedetails/4936-Coliseum-St-New-Orleans-LA-70115/73841243_zpid/
1109 N 3rd St,Monroe,LA,71201,32.51213,-92.12378,3.0,$200000.0,3D Tour,https://www.zillow.com/homedetails/1109-N-3rd-St-Monroe-LA-71201/92511967_zpid/
412 Highland Dr,Houma,LA,70364,29.611694,-90.73746,4.0,$258500.0,"$6,500 (Feb 1)",https://www.zillow.com/homedetails/412-Highland-Dr-Houma-LA-70364/77749942_zpid/
2898 E Linton Rd,Benton,LA,71006,32.69633,-93.656006,3.0,$327000.0,"$1,000 (Feb 17)",https://www.zillow.com/homedetails/2898-E-Linton-Rd-Benton-LA-71006/109785872_zpid/
2004 N 3rd St,Monroe,LA,71201,32.520027,-92.130066,3.0,$185000.0,4 days on Zillow,https://www.zillow.com/homedetails/2004-N-3rd-St-Monroe-LA-71201/92474981_zpid/
4655 Hollywood St,Baton Rouge,LA,70805,30.494719,-91.15638,5.0,$189000.0,6 days on Zillow,https://www.zillow.com/homedetails/4655-Hollywood-St-Baton-Rouge-LA-70805/66249342_zpid/
4081 Cypress Clear Ct,Zachary,LA,70791,30.648754,-91.18714,4.0,$282000.0,11 days on Zillow,https://www.zillow.com/homedetails/4081-Cypress-Clear-Ct-Zachary-LA-70791/66383803_zpid/
1549 Philip St #A,New Orleans,LA,70130,29.932945,-90.080894,2.0,$350000.0,20 hours ago,https://www.zillow.com/homedetails/1549-Philip-St-A-New-Orleans-LA-70130/2118292761_zpid/
10621 Browning Dr,Baton Rouge,LA,70815,30.441322,-91.06794,4.0,$350000.0,47 days on Zillow,https://www.zillow.com/homedetails/10621-Browning-Dr-Baton-Rouge-LA-70815/66309906_zpid/
105 Club House Cir,Benton,LA,71006,32.657707,-93.71827,4.0,$349900.0,5 days on Zillow,https://www.zillow.com/homedetails/105-Club-House-Cir-Benton-LA-71006/109828286_zpid/
127 Breaker Dr,Cameron,LA,70631,29.757416,-93.59605,5.0,$530000.0,31 days on Zillow,https://www.zillow.com/homedetails/127-Breaker-Dr-Cameron-LA-70631/194538162_zpid/
257 L C Vizena Rd,Oberlin,LA,70655,30.61513,-92.74339,5.0,$29900.0,99 days on Zillow,https://www.zillow.com/homedetails/257-L-C-Vizena-Rd-Oberlin-LA-70655/2060721057_zpid/
214 Highland Ave,Bastrop,LA,71220,32.788673,-91.91591,3.0,$49900.0,14 hours ago,https://www.zillow.com/homedetails/214-Highland-Ave-Bastrop-LA-71220/115148610_zpid/
28061 Creole Rd,Lacombe,LA,70445,30.299091,-89.941795,3.0,$80000.0,4 days on Zillow,https://www.zillow.com/homedetails/28061-Creole-Rd-Lacombe-LA-70445/96249774_zpid/
1424 Letitia St,Baton Rouge,LA,70808,30.435465,-91.160965,3.0,$325000.0,"$10,000 (Jan 29)",https://www.zillow.com/homedetails/1424-Letitia-St-Baton-Rouge-LA-70808/66297521_zpid/
LOT Mh #6,Addis,LA,70710,,,,$235000.0,15 hours ago,https://www.zillow.com/homedetails/LOT-Mh-6-Addis-LA-70710/2068473575_zpid/
1428 Leonidas St,New Orleans,LA,70118,29.9528,-90.132164,2.0,$175000.0,4 days on Zillow,https://www.zillow.com/homedetails/1428-Leonidas-St-New-Orleans-LA-70118/84481004_zpid/
2421 W Coffey Pines Rd,Lake charles,LA,70611,30.34311,-93.24082,3.0,$367500.0,2 days on Zillow,https://www.zillow.com/homedetails/2421-W-Coffey-Pines-Rd-Lake-Charles-LA-70611/102688210_zpid/
400 Last Quarter Dr,Youngsville,LA,70592,,,4.0,$438000.0,46 days on Zillow,https://www.zillow.com/homedetails/400-Last-Quarter-Dr-Youngsville-LA-70592/2063038057_zpid/
1908 Cottonwood St,Deridder,LA,70634,30.880615,-93.29308,3.0,$199500.0,75 days on Zillow,https://www.zillow.com/homedetails/1908-Cottonwood-St-Deridder-LA-70634/106019439_zpid/
511 S Cunningham St,Rayne,LA,70578,30.231121,-92.26561,4.0,$140000.0,7 days on Zillow,https://www.zillow.com/homedetails/511-S-Cunningham-St-Rayne-LA-70578/105974704_zpid/
72269 Jackies Ln,Abita Springs,LA,70420,30.482487,-90.05037,3.0,$189900.0,8 days on Zillow,https://www.zillow.com/homedetails/72269-Jackies-Ln-Abita-Springs-LA-70420/96161250_zpid/
930 Okaloosa Rd,Eros,LA,71238,32.386593,-92.32481,3.0,$160000.0,33 days on Zillow,https://www.zillow.com/homedetails/930-Okaloosa-Rd-Eros-LA-71238/92519818_zpid/
1827 Clouet St,New Orleans,LA,70117,29.975409,-90.04161,3.0,$329900.0,4 days on Zillow,https://www.zillow.com/homedetails/1827-Clouet-St-New-Orleans-LA-70117/73802399_zpid/
5819 Rhodes Ave,New Orleans,LA,70131,29.921797,-89.99489,3.0,$240000.0,19 days on Zillow,https://www.zillow.com/homedetails/5819-Rhodes-Ave-New-Orleans-LA-70131/73829338_zpid/
247 River Point Dr,Destrehan,LA,70047,29.994833,-90.370735,3.0,$330000.0,1 day on Zillow,https://www.zillow.com/homedetails/247-River-Point-Dr-Destrehan-LA-70047/77723374_zpid/
363 Windermere Blvd UNIT 109,Alexandria,LA,71303,31.289698,-92.48998,3.0,$170000.0,8 minutes ago,https://www.zillow.com/homedetails/363-Windermere-Blvd-UNIT-109-Alexandria-LA-71303/2059079182_zpid/
Highway 16,Amite,LA,70422,30.738527,-90.641945,,$69000.0,8 days on Zillow,https://www.zillow.com/homedetails/Highway-16-Amite-LA-70422/252233428_zpid/
104 Patrick St,New Iberia,LA,70563,29.98789,-91.77184,3.0,$299000.0,1 day on Zillow,https://www.zillow.com/homedetails/104-Patrick-St-New-Iberia-LA-70563/77625784_zpid/
801 Robinson Pl,Shreveport,LA,71104,32.486298,-93.74636,4.0,$350000.0,367 days on Zillow,https://www.zillow.com/homedetails/801-Robinson-Pl-Shreveport-LA-71104/51350548_zpid/
9263 Cypress Lake Dr,Denham Springs,LA,70726,30.487732,-90.93528,4.0,$274900.0,"$10,100 (Feb 7)",https://www.zillow.com/homedetails/9263-Cypress-Lake-Dr-Denham-Springs-LA-70726/210274264_zpid/
4211 S Johnson St,New Orleans,LA,70125,29.944382,-90.10193,3.0,$325000.0,"$23,000 (Feb 7)",https://www.zillow.com/homedetails/4211-S-Johnson-St-New-Orleans-LA-70125/73837863_zpid/
821 W 26th Ave,Covington,LA,70433,30.483591,-90.10492,2.0,$274900.0,143 days on Zillow,https://www.zillow.com/homedetails/821-W-26th-Ave-Covington-LA-70433/96227129_zpid/
31424 Barbara Dr,Springfield,LA,70462,30.365889,-90.56843,4.0,$283500.0,"$16,000 (Jan 10)",https://www.zillow.com/homedetails/31424-Barbara-Dr-Springfield-LA-70462/110917688_zpid/
5397 West St,Anacoco,LA,71403,31.244175,-93.35622,3.0,$365000.0,"$10,000 (Feb 2)",https://www.zillow.com/homedetails/5397-West-St-Anacoco-LA-71403/117974030_zpid/
78 Miles St,Many,LA,71449,31.34394,-93.60154,3.0,$285000.0,17 days on Zillow,https://www.zillow.com/homedetails/78-Miles-St-Many-LA-71449/112221079_zpid/
17627 Highway 16,Amite,LA,70422,30.744871,-90.436516,4.0,$273999.0,"$25,001 (Jan 27)",https://www.zillow.com/homedetails/17627-Highway-16-Amite-LA-70422/77743826_zpid/
2248 Leon C Simon Dr,New Orleans,LA,70122,30.024921,-90.05979,4.0,$379900.0,28 days on Zillow,https://www.zillow.com/homedetails/2248-Leon-C-Simon-Dr-New-Orleans-LA-70122/73793949_zpid/
938 Royal St APT A,New Orleans,LA,70116,29.959852,-90.06286,1.0,$265000.0,161 days on Zillow,https://www.zillow.com/homedetails/938-Royal-St-APT-A-New-Orleans-LA-70116/2061585055_zpid/
6874 Greenwood Rd,Shreveport,LA,71119,32.45324,-93.885735,4.0,$129000.0,"$11,000 (Feb 13)",https://www.zillow.com/homedetails/6874-Greenwood-Rd-Shreveport-LA-71119/51377680_zpid/
857 Gladstone Blvd,Shreveport,LA,71104,32.478947,-93.7479,3.0,$179900.0,39 days on Zillow,https://www.zillow.com/homedetails/857-Gladstone-Blvd-Shreveport-LA-71104/51358049_zpid/
4900 Old Oak Dr,Benton,LA,71006,32.65012,-93.70219,4.0,$499900.0,"$25,100 (Jan 26)",https://www.zillow.com/homedetails/4900-Old-Oak-Dr-Benton-LA-71006/109803715_zpid/
151 Adley Ave,Houma,LA,70364,,,4.0,$278255.0,5 days on Zillow,https://www.zillow.com/homedetails/151-Adley-Ave-Houma-LA-70364/2062740041_zpid/
203 Avery Dr,Slidell,LA,70461,30.23732,-89.70449,3.0,$129995.0,1 day on Zillow,https://www.zillow.com/homedetails/203-Avery-Dr-Slidell-LA-70461/96245968_zpid/
112 Broussard Dr,La Place,LA,70068,30.072035,-90.46866,5.0,$279000.0,7 days on Zillow,https://www.zillow.com/homedetails/112-Broussard-Dr-La-Place-LA-70068/106114652_zpid/
2958 Madeira Dr,Baton Rouge,LA,70810,30.387074,-91.10291,3.0,$247999.0,"$2,000 (Feb 13)",https://www.zillow.com/homedetails/2958-Madeira-Dr-Baton-Rouge-LA-70810/66295118_zpid/
134 Delaney Rd,Lake Charles,LA,70607,29.98008,-93.23274,4.0,$525000.0,134 days on Zillow,https://www.zillow.com/homedetails/134-Delaney-Rd-Lake-Charles-LA-70607/194536285_zpid/
1719 N Tonti St,New Orleans,LA,70119,29.979042,-90.07035,3.0,$485000.0,8 days on Zillow,https://www.zillow.com/homedetails/1719-N-Tonti-St-New-Orleans-LA-70119/148980077_zpid/
105 Osage Dr,Youngsville,LA,70592,30.126577,-92.02977,4.0,$339500.0,"$15,500 (Feb 1)",https://www.zillow.com/homedetails/105-Osage-Dr-Youngsville-LA-70592/81689259_zpid/
813 Saint Peter St,New Orleans,LA,70116,29.95884,-90.065765,2.0,$429000.0,237 days on Zillow,https://www.zillow.com/homedetails/813-Saint-Peter-St-New-Orleans-LA-70116/2094758705_zpid/
1802 Toulouse Dr,Monroe,LA,71201,32.531128,-92.10139,4.0,$549000.0,"$5,000 (Feb 16)",https://www.zillow.com/homedetails/1802-Toulouse-Dr-Monroe-LA-71201/101635739_zpid/
2424 Shadowbrook Dr,Baton Rouge,LA,70816,30.429327,-91.016,3.0,$179900.0,12 days on Zillow,https://www.zillow.com/homedetails/2424-Shadowbrook-Dr-Baton-Rouge-LA-70816/66365263_zpid/
405 E Bailey St,Vivian,LA,71082,32.86862,-93.983444,2.0,$25000.0,13 hours ago,https://www.zillow.com/homedetails/405-E-Bailey-St-Vivian-LA-71082/51396406_zpid/
4529 Fairfield St,Metairie,LA,70006,30.01544,-90.186554,3.0,$331000.0,7 days on Zillow,https://www.zillow.com/homedetails/4529-Fairfield-St-Metairie-LA-70006/73723170_zpid/
800 Regmar Dr,Shreveport,LA,71107,32.586994,-93.800125,3.0,$229900.0,141 days on Zillow,https://www.zillow.com/homedetails/800-Regmar-Dr-Shreveport-LA-71107/51380986_zpid/
3487 Yosemite Dr,Baton Rouge,LA,70814,30.48075,-91.07865,4.0,$229900.0,"$7,000 (Jan 12)",https://www.zillow.com/homedetails/3487-Yosemite-Dr-Baton-Rouge-LA-70814/66315434_zpid/
11662 Auburn Dr,Baton Rouge,LA,70816,30.427176,-91.05251,3.0,$189900.0,"$9,100 (Feb 14)",https://www.zillow.com/homedetails/11662-Auburn-Dr-Baton-Rouge-LA-70816/66302278_zpid/
254 Cherokee Rose Ln,Covington,LA,70433,30.46256,-90.12319,4.0,$360000.0,22 days on Zillow,https://www.zillow.com/homedetails/254-Cherokee-Rose-Ln-Covington-LA-70433/96148737_zpid/
314 Mockingbird Ln,Shreveport,LA,71105,32.455727,-93.705086,3.0,$219000.0,11 days on Zillow,https://www.zillow.com/homedetails/314-Mockingbird-Ln-Shreveport-LA-71105/51339542_zpid/
11 Waters Edge Dr,Monroe,LA,71203,32.60584,-92.06967,4.0,$579900.0,33 days on Zillow,https://www.zillow.com/homedetails/11-Waters-Edge-Dr-Monroe-LA-71203/2077606506_zpid/
1951 Riviera Rd,Westlake,LA,70669,30.255583,-93.22604,3.0,$499000.0,22 hours ago,https://www.zillow.com/homedetails/1951-Riviera-Rd-Westlake-LA-70669/248894958_zpid/
6125 Annunciation St,New Orleans,LA,70118,29.919552,-90.125496,3.0,$499000.0,25 days on Zillow,https://www.zillow.com/homedetails/6125-Annunciation-St-New-Orleans-LA-70118/73841637_zpid/
575 38th Hwy,Kentwood,LA,70444,,,3.0,$299900.0,2 days on Zillow,https://www.zillow.com/homedetails/575-38th-Hwy-Kentwood-LA-70444/2059105336_zpid/
1547 Avondale Dr,Baton Rouge,LA,70808,30.434862,-91.13914,3.0,$495000.0,"$4,000 (Feb 16)",https://www.zillow.com/homedetails/1547-Avondale-Dr-Baton-Rouge-LA-70808/66278666_zpid/
2617 Margie St,Metairie,LA,70003,30.000051,-90.2039,4.0,$324900.0,"$25,000 (Jan 31)",https://www.zillow.com/homedetails/2617-Margie-St-Metairie-LA-70003/73733084_zpid/
11413 Maxine Dr,New Orleans,LA,70128,30.034515,-89.95026,3.0,$425000.0,"$20,000 (Feb 17)",https://www.zillow.com/homedetails/11413-Maxine-Dr-New-Orleans-LA-70128/73812266_zpid/
101 Kevin Dr,Lafayette,LA,70507,30.27701,-92.00642,3.0,$200000.0,39 days on Zillow,https://www.zillow.com/homedetails/101-Kevin-Dr-Lafayette-LA-70507/77654315_zpid/
14466 Highway 1075,Bogalusa,LA,70427,30.733747,-89.87629,4.0,$200000.0,6 days on Zillow,https://www.zillow.com/homedetails/14466-Highway-1075-Bogalusa-LA-70427/106195243_zpid/
8141 Stonelake Circle East Ave,Baton Rouge,LA,70820,30.362713,-91.13291,3.0,$269900.0,4 days on Zillow,https://www.zillow.com/homedetails/8141-Stonelake-Circle-East-Ave-Baton-Rouge-LA-70820/332939293_zpid/
835 Esplanade Ave #D,New Orleans,LA,70116,29.964378,-90.061,2.0,$459000.0,4 days on Zillow,https://www.zillow.com/homedetails/835-Esplanade-Ave-D-New-Orleans-LA-70116/84449481_zpid/
118 Sunny Ln,Lafayette,LA,70506,30.205973,-92.053665,3.0,$235000.0,"$7,530 (Jan 17)",https://www.zillow.com/homedetails/118-Sunny-Ln-Lafayette-LA-70506/126794177_zpid/
18340 Muddy Creek Rd,Prairieville,LA,70769,30.334373,-90.92248,3.0,$200000.0,272 days on Zillow,https://www.zillow.com/homedetails/18340-Muddy-Creek-Rd-Prairieville-LA-70769/1466919_zpid/
11898 Highway 28 E,Pineville,LA,71360,31.384596,-92.24372,3.0,$279500.0,125 days on Zillow,https://www.zillow.com/homedetails/11898-Highway-28-E-Pineville-LA-71360/2061001942_zpid/
3716 Red Cedar Ln,Harvey,LA,70058,29.845972,-90.06834,4.0,$235000.0,3D Tour,https://www.zillow.com/homedetails/3716-Red-Cedar-Ln-Harvey-LA-70058/73704493_zpid/
665 N Beau Chene Dr APT 6,Mandeville,LA,70471,30.409204,-90.11008,2.0,$189000.0,"$11,000 (Feb 6)",https://www.zillow.com/homedetails/665-N-Beau-Chene-Dr-APT-6-Mandeville-LA-70471/96242636_zpid/
2700 Idevan Ln,Monroe,LA,71201,32.546524,-92.10017,3.0,$349500.0,1 day on Zillow,https://www.zillow.com/homedetails/2700-Idevan-Ln-Monroe-LA-71201/92509137_zpid/
3620 Despaux Dr,Chalmette,LA,70043,29.947,-89.93828,3.0,$274900.0,"$5,000 (Feb 19)",https://www.zillow.com/homedetails/3620-Despaux-Dr-Chalmette-LA-70043/115185237_zpid/
836 Highway 146,Ruston,LA,71270,32.510487,-92.6079,3.0,$173000.0,"$6,900 (Jan 7)",https://www.zillow.com/homedetails/836-Highway-146-Ruston-LA-71270/106095487_zpid/
65 Rue Du Sud,Madisonville,LA,70447,30.38901,-90.20584,4.0,$165000.0,3 days on Zillow,https://www.zillow.com/homedetails/65-Rue-Du-Sud-Madisonville-LA-70447/96230371_zpid/
1813 Touro St,New Orleans,LA,70116,29.975887,-90.059586,4.0,$127900.0,14 days on Zillow,https://www.zillow.com/homedetails/1813-Touro-St-New-Orleans-LA-70116/84448391_zpid/
7201 Bullard Ave,New Orleans,LA,70128,30.04901,-89.96298,4.0,$178000.0,2 days on Zillow,https://www.zillow.com/homedetails/7201-Bullard-Ave-New-Orleans-LA-70128/73804143_zpid/
706 W Lakeshore Dr,Benton,LA,71006,32.66327,-93.67981,3.0,$335000.0,"$15,000 (Dec 14)",https://www.zillow.com/homedetails/706-W-Lakeshore-Dr-Benton-LA-71006/109801105_zpid/
612 N Hickory St,Vivian,LA,71082,32.878815,-93.98775,2.0,$25000.0,17 hours ago,https://www.zillow.com/homedetails/612-N-Hickory-St-Vivian-LA-71082/51395650_zpid/
12296 Pendarvis Ln,Walker,LA,70785,30.481712,-90.88365,3.0,$375000.0,3D Tour,https://www.zillow.com/homedetails/12296-Pendarvis-Ln-Walker-LA-70785/110916550_zpid/
32028 N Doyle Rd,Holden,LA,70744,30.53564,-90.71281,2.0,$380000.0,67 days on Zillow,https://www.zillow.com/homedetails/32028-N-Doyle-Rd-Holden-LA-70744/114006185_zpid/
206 Jenci Dr,Broussard,LA,70518,30.14205,-91.97088,3.0,$239900.0,5 days on Zillow,https://www.zillow.com/homedetails/206-Jenci-Dr-Broussard-LA-70518/126795411_zpid/
409 Hill Ridge Dr,Youngsville,LA,70592,30.091393,-91.9775,3.0,$195000.0,"$4,000 (Feb 16)",https://www.zillow.com/homedetails/409-Hill-Ridge-Dr-Youngsville-LA-70592/110904551_zpid/
50 Robert Rd,Westwego,LA,70094,29.957409,-90.2391,3.0,$185000.0,52 days on Zillow,https://www.zillow.com/homedetails/50-Robert-Rd-Westwego-LA-70094/73710521_zpid/
21 Place Lafitte,Madisonville,LA,70447,30.390566,-90.20498,3.0,$245000.0,Open: 3/4 11am-1pm,https://www.zillow.com/homedetails/21-Place-Lafitte-Madisonville-LA-70447/96239546_zpid/
6461 Grand Caillou Rd,Houma,LA,70363,29.424341,-90.69588,4.0,$235000.0,"$15,000 (Feb 14)",https://www.zillow.com/homedetails/6461-Grand-Caillou-Rd-Houma-LA-70363/77766972_zpid/
11257 Rist Rd,Clinton,LA,70722,30.912804,-90.964775,5.0,$484900.0,"$4,100 (Feb 15)",https://www.zillow.com/homedetails/11257-Rist-Rd-Clinton-LA-70722/106048124_zpid/
455 Albert Ave,Shreveport,LA,71105,32.465237,-93.73251,2.0,$98000.0,2 days on Zillow,https://www.zillow.com/homedetails/455-Albert-Ave-Shreveport-LA-71105/51340529_zpid/
202 Dublin Cir APT H,Lafayette,LA,70506,30.211584,-92.07394,3.0,$210000.0,"$10,000 (Feb 4)",https://www.zillow.com/homedetails/202-Dublin-Cir-APT-H-Lafayette-LA-70506/110909035_zpid/
600 Burkette Ln,Denham Springs,LA,70706,30.67005,-90.85584,4.0,$365000.0,"$35,000 (Feb 14)",https://www.zillow.com/homedetails/600-Burkette-Ln-Denham-Springs-LA-70706/115189574_zpid/
1008 Green Wood Cir,Haughton,LA,71037,32.563557,-93.61693,5.0,$362400.0,"$5,000 (Feb 1)",https://www.zillow.com/homedetails/1008-Green-Wood-Cir-Haughton-LA-71037/208129650_zpid/
503 Applespice Dr,Shreveport,LA,71115,32.413383,-93.69795,2.0,$199750.0,19 hours ago,https://www.zillow.com/homedetails/503-Applespice-Dr-Shreveport-LA-71115/51349149_zpid/
459 Atkins Ave,Shreveport,LA,71104,32.480633,-93.73933,5.0,$315000.0,161 days on Zillow,https://www.zillow.com/homedetails/459-Atkins-Ave-Shreveport-LA-71104/51336168_zpid/
185 Boykins Rd,Sunset,LA,70584,30.407549,-92.0964,4.0,$119900.0,117 days on Zillow,https://www.zillow.com/homedetails/185-Boykins-Rd-Sunset-LA-70584/248599686_zpid/
1822 Magnolia St,Bogalusa,LA,70427,30.755579,-89.84658,2.0,$20000.0,103 days on Zillow,https://www.zillow.com/homedetails/1822-Magnolia-St-Bogalusa-LA-70427/106191155_zpid/
3280 Highway 818,Ruston,LA,71270,32.49763,-92.675644,3.0,$189900.0,"$10,000 (Jan 24)",https://www.zillow.com/homedetails/3280-Highway-818-Ruston-LA-71270/106095537_zpid/
